% program   : RTKPOST ver.2.4.2
% inp file  : C:\Users\Melissa\Documents\Survey_Data\January_3PS_Exp_2025\Wallis_Sands\20250120\Rover\82761570.o
% inp file  : C:\Users\Melissa\Documents\Survey_Data\January_3PS_Exp_2025\Wallis_Sands\20250120\Base\nhun020\nhun0200.25o
% inp file  : C:\Users\Melissa\Documents\Survey_Data\January_3PS_Exp_2025\Wallis_Sands\20250120\Base\nhun020\nhun0200.25n
% inp file  : C:\Users\Melissa\Documents\Survey_Data\January_3PS_Exp_2025\Wallis_Sands\20250120\Base\nhun020\igr23501.sp3
% obs start : 2025/01/20 16:09:25.0 GPST (week2350 144565.0s)
% obs end   : 2025/01/20 16:22:18.0 GPST (week2350 145338.0s)
% pos mode  : kinematic
% freqs     : L1+L2+L5
% solution  : combined
% elev mask : 15.0 deg
% dynamics  : off
% tidecorr  : off
% ionos opt : broadcast
% tropo opt : saastamoinen
% ephemeris : broadcast
% navi sys  : gps glonass galileo qzss
% amb res   : continuous
% amb glo   : on
% val thres : 3.0
% antenna1  :                       ( 0.0000  0.0000  0.0000)
% antenna2  :                       ( 0.0000  0.0000  0.0000)
% ref pos   : 43.142559483  -70.951909686     7.9230
%
% (lat/lon/height=WGS84/ellipsoidal,Q=1:fix,2:float,3:sbas,4:dgps,5:single,6:ppp,ns=# of satellites)
%  GPST                  latitude(deg) longitude(deg)  height(m)   Q  ns   sdn(m)   sde(m)   sdu(m)  sdne(m)  sdeu(m)  sdun(m) age(s)  ratio
2025/01/20 16:09:25.000   43.024892488  -70.730800155   -21.7110   2   7   0.3746   0.3044   0.9903  -0.1348   0.3018  -0.3610   0.00    1.0
2025/01/20 16:09:26.000   43.024872795  -70.730821177   -19.6599   2   7   0.0142   0.0134   0.0243  -0.0084   0.0107  -0.0163   0.00    1.1
2025/01/20 16:09:27.000   43.024872788  -70.730821138   -19.6511   2   7   0.0141   0.0132   0.0243  -0.0087   0.0106  -0.0164   0.00    1.1
2025/01/20 16:09:28.000   43.024872791  -70.730821145   -19.6517   2   7   0.0143   0.0134   0.0243  -0.0084   0.0108  -0.0163   0.00    1.1
2025/01/20 16:09:29.000   43.024872808  -70.730821153   -19.6482   2   7   0.0143   0.0134   0.0243  -0.0086   0.0107  -0.0163   0.00    1.1
2025/01/20 16:09:30.000   43.024872801  -70.730821139   -19.6475   2   7   0.0144   0.0134   0.0243  -0.0085   0.0107  -0.0163   0.00    1.0
2025/01/20 16:09:31.000   43.024872802  -70.730821129   -19.6479   2   7   0.0143   0.0134   0.0243  -0.0086   0.0107  -0.0164   0.00    1.0
2025/01/20 16:09:32.000   43.024872819  -70.730821136   -19.6497   2   7   0.0142   0.0135   0.0243  -0.0084   0.0108  -0.0163   0.00    1.0
2025/01/20 16:09:33.000   43.024872841  -70.730821132   -19.6461   2   7   0.0144   0.0135   0.0243  -0.0084   0.0107  -0.0163   0.00    1.0
2025/01/20 16:09:34.000   43.024872821  -70.730821112   -19.6500   2   7   0.0143   0.0133   0.0243  -0.0086   0.0106  -0.0164   0.00    1.0
2025/01/20 16:09:35.000   43.024872782  -70.730821104   -19.6413   2   7   0.0142   0.0134   0.0243  -0.0084   0.0107  -0.0164   0.00    1.0
2025/01/20 16:09:36.000   43.024872791  -70.730821142   -19.6454   2   7   0.0143   0.0133   0.0244  -0.0087   0.0106  -0.0164   0.00    1.0
2025/01/20 16:09:37.000   43.024872806  -70.730821105   -19.6503   2   7   0.0143   0.0132   0.0244  -0.0087   0.0106  -0.0163   0.00    1.0
2025/01/20 16:09:38.000   43.024872810  -70.730821110   -19.6430   2   7   0.0145   0.0133   0.0244  -0.0086   0.0106  -0.0163   0.00    1.0
2025/01/20 16:09:39.000   43.024872813  -70.730821105   -19.6426   2   7   0.0143   0.0131   0.0244  -0.0088   0.0105  -0.0163   0.00    1.0
2025/01/20 16:09:40.000   43.024872813  -70.730821062   -19.6442   2   7   0.0144   0.0135   0.0244  -0.0084   0.0107  -0.0163   0.00    1.0
2025/01/20 16:09:41.000   43.024872799  -70.730821056   -19.6489   2   7   0.0143   0.0134   0.0244  -0.0085   0.0106  -0.0164   0.00    1.0
2025/01/20 16:09:42.000   43.024872780  -70.730821121   -19.6349   2   7   0.0142   0.0134   0.0244  -0.0086   0.0107  -0.0164   0.00    1.0
2025/01/20 16:09:43.000   43.024872793  -70.730821139   -19.6516   2   7   0.0144   0.0134   0.0244  -0.0085   0.0106  -0.0164   0.00    1.0
2025/01/20 16:09:44.000   43.024872817  -70.730821027   -19.6345   2   7   0.0143   0.0133   0.0244  -0.0086   0.0106  -0.0164   0.00    1.0
2025/01/20 16:09:45.000   43.024872775  -70.730821051   -19.6398   2   7   0.0145   0.0134   0.0244  -0.0085   0.0106  -0.0163   0.00    1.0
2025/01/20 16:09:46.000   43.024872792  -70.730821046   -19.6431   2   7   0.0144   0.0134   0.0245  -0.0086   0.0106  -0.0164   0.00    1.0
2025/01/20 16:09:47.000   43.024872771  -70.730821052   -19.6458   2   7   0.0143   0.0134   0.0244  -0.0086   0.0106  -0.0164   0.00    1.0
2025/01/20 16:09:48.000   43.024872811  -70.730821063   -19.6430   2   7   0.0142   0.0132   0.0245  -0.0087   0.0105  -0.0164   0.00    1.0
2025/01/20 16:09:49.000   43.024872819  -70.730821017   -19.6374   2   7   0.0143   0.0133   0.0244  -0.0085   0.0105  -0.0164   0.00    1.0
2025/01/20 16:09:50.000   43.024872789  -70.730821052   -19.6382   2   7   0.0145   0.0133   0.0245  -0.0087   0.0105  -0.0163   0.00    1.0
2025/01/20 16:09:51.000   43.024872836  -70.730820985   -19.6474   2   7   0.0146   0.0134   0.0245  -0.0083   0.0106  -0.0164   0.00    1.0
2025/01/20 16:09:52.000   43.024872786  -70.730821025   -19.6437   2   7   0.0144   0.0133   0.0245  -0.0085   0.0105  -0.0164   0.00    1.0
2025/01/20 16:09:53.000   43.024872817  -70.730820981   -19.6356   2   7   0.0143   0.0134   0.0245  -0.0086   0.0105  -0.0164   0.00    1.0
2025/01/20 16:09:54.000   43.024872812  -70.730820995   -19.6437   2   7   0.0143   0.0134   0.0245  -0.0085   0.0105  -0.0164   0.00    1.0
2025/01/20 16:09:55.000   43.024872838  -70.730820943   -19.6382   2   7   0.0144   0.0134   0.0245  -0.0084   0.0106  -0.0164   0.00    1.0
2025/01/20 16:09:56.000   43.024872857  -70.730820984   -19.6454   2   7   0.0144   0.0133   0.0245  -0.0086   0.0105  -0.0164   0.00    1.0
2025/01/20 16:09:57.000   43.024872826  -70.730820955   -19.6471   2   7   0.0144   0.0133   0.0245  -0.0086   0.0106  -0.0164   0.00    1.0
2025/01/20 16:09:58.000   43.024872872  -70.730820933   -19.6464   2   7   0.0143   0.0133   0.0245  -0.0086   0.0104  -0.0164   0.00    1.0
2025/01/20 16:09:59.000   43.024872891  -70.730820854   -19.6405   2   7   0.0146   0.0134   0.0245  -0.0083   0.0105  -0.0164   0.00    1.0
2025/01/20 16:10:00.000   43.024872877  -70.730820861   -19.6437   2   7   0.0145   0.0134   0.0246  -0.0084   0.0105  -0.0164   0.00    1.0
2025/01/20 16:10:01.000   43.024872872  -70.730820846   -19.6469   2   7   0.0144   0.0133   0.0246  -0.0084   0.0105  -0.0164   0.00    1.0
2025/01/20 16:10:02.000   43.024872878  -70.730820873   -19.6473   2   7   0.0145   0.0133   0.0246  -0.0085   0.0105  -0.0164   0.00    1.0
2025/01/20 16:10:03.000   43.024872930  -70.730820809   -19.6435   2   7   0.0146   0.0134   0.0245  -0.0083   0.0105  -0.0164   0.00    1.0
2025/01/20 16:10:04.000   43.024872930  -70.730820867   -19.6488   2   7   0.0145   0.0133   0.0246  -0.0085   0.0106  -0.0164   0.00    1.0
2025/01/20 16:10:05.000   43.024872889  -70.730820798   -19.6379   2   7   0.0143   0.0134   0.0246  -0.0086   0.0105  -0.0165   0.00    1.0
2025/01/20 16:10:06.000   43.024872901  -70.730820766   -19.6478   2   7   0.0145   0.0134   0.0246  -0.0085   0.0106  -0.0165   0.00    1.0
2025/01/20 16:10:07.000   43.024872944  -70.730820736   -19.6534   2   7   0.0145   0.0135   0.0246  -0.0084   0.0105  -0.0165   0.00    1.0
2025/01/20 16:10:08.000   43.024872917  -70.730820771   -19.6511   2   7   0.0146   0.0132   0.0246  -0.0086   0.0105  -0.0165   0.00    1.0
2025/01/20 16:10:09.000   43.024872946  -70.730820794   -19.6561   2   7   0.0145   0.0133   0.0246  -0.0085   0.0105  -0.0164   0.00    1.0
2025/01/20 16:10:10.000   43.024872997  -70.730820695   -19.6501   2   7   0.0146   0.0134   0.0246  -0.0084   0.0106  -0.0165   0.00    1.0
2025/01/20 16:10:11.000   43.024872990  -70.730820694   -19.6581   2   7   0.0144   0.0135   0.0246  -0.0084   0.0105  -0.0165   0.00    1.0
2025/01/20 16:10:12.000   43.024872974  -70.730820688   -19.6460   2   7   0.0144   0.0133   0.0246  -0.0085   0.0105  -0.0165   0.00    1.0
2025/01/20 16:10:13.000   43.024873000  -70.730820732   -19.6525   2   7   0.0144   0.0132   0.0246  -0.0087   0.0104  -0.0166   0.00    1.0
2025/01/20 16:10:14.000   43.024873055  -70.730820618   -19.6554   2   7   0.0145   0.0135   0.0247  -0.0083   0.0105  -0.0165   0.00    1.0
2025/01/20 16:10:15.000   43.024873016  -70.730820678   -19.6510   2   7   0.0144   0.0133   0.0247  -0.0086   0.0104  -0.0165   0.00    1.0
2025/01/20 16:10:16.000   43.024873087  -70.730820601   -19.6572   2   7   0.0146   0.0134   0.0247  -0.0082   0.0105  -0.0165   0.00    1.0
2025/01/20 16:10:17.000   43.024873059  -70.730820663   -19.6670   2   7   0.0145   0.0133   0.0246  -0.0085   0.0104  -0.0165   0.00    1.0
2025/01/20 16:10:18.000   43.024873086  -70.730820551   -19.6530   2   7   0.0144   0.0135   0.0247  -0.0083   0.0105  -0.0165   0.00    1.0
2025/01/20 16:10:19.000   43.024873071  -70.730820672   -19.6638   2   7   0.0144   0.0133   0.0247  -0.0086   0.0104  -0.0166   0.00    1.0
2025/01/20 16:10:20.000   43.024873102  -70.730820577   -19.6645   2   7   0.0145   0.0134   0.0247  -0.0084   0.0105  -0.0166   0.00    1.0
2025/01/20 16:10:21.000   43.024873115  -70.730820459   -19.6572   2   7   0.0146   0.0135   0.0247  -0.0083   0.0104  -0.0166   0.00    1.0
2025/01/20 16:10:22.000   43.024873176  -70.730820500   -19.6557   2   7   0.0146   0.0134   0.0247  -0.0083   0.0105  -0.0165   0.00    1.0
2025/01/20 16:10:23.000   43.024873121  -70.730820508   -19.6631   2   7   0.0145   0.0135   0.0247  -0.0083   0.0105  -0.0165   0.00    1.0
2025/01/20 16:10:24.000   43.024873214  -70.730820283   -19.6605   2   7   0.0145   0.0135   0.0247  -0.0083   0.0104  -0.0166   0.00    1.0
2025/01/20 16:10:25.000   43.024873262  -70.730820208   -19.6612   2   7   0.0145   0.0135   0.0247  -0.0083   0.0105  -0.0166   0.00    1.0
2025/01/20 16:10:26.000   43.024873244  -70.730820264   -19.6582   2   7   0.0143   0.0133   0.0247  -0.0085   0.0105  -0.0166   0.00    1.0
2025/01/20 16:10:27.000   43.024873280  -70.730820253   -19.6579   2   7   0.0146   0.0133   0.0248  -0.0084   0.0104  -0.0165   0.00    1.0
2025/01/20 16:10:28.000   43.024873278  -70.730820204   -19.6675   2   7   0.0146   0.0135   0.0247  -0.0083   0.0104  -0.0166   0.00    1.0
2025/01/20 16:10:29.000   43.024873295  -70.730820165   -19.6675   2   7   0.0146   0.0135   0.0248  -0.0082   0.0104  -0.0166   0.00    1.0
2025/01/20 16:10:30.000   43.024873329  -70.730820163   -19.6697   2   7   0.0144   0.0134   0.0248  -0.0084   0.0104  -0.0166   0.00    1.0
2025/01/20 16:10:31.000   43.024873362  -70.730820111   -19.6750   2   7   0.0145   0.0134   0.0248  -0.0084   0.0104  -0.0166   0.00    1.0
2025/01/20 16:10:32.000   43.024873381  -70.730820108   -19.6727   2   7   0.0145   0.0134   0.0248  -0.0083   0.0104  -0.0166   0.00    1.0
2025/01/20 16:10:33.000   43.024873421  -70.730820086   -19.6735   2   7   0.0146   0.0135   0.0248  -0.0083   0.0104  -0.0166   0.00    1.0
2025/01/20 16:10:34.000   43.024873424  -70.730820124   -19.6793   2   7   0.0146   0.0134   0.0248  -0.0083   0.0105  -0.0166   0.00    1.0
2025/01/20 16:10:35.000   43.024873450  -70.730820065   -19.6699   2   7   0.0146   0.0134   0.0248  -0.0082   0.0105  -0.0166   0.00    1.0
2025/01/20 16:10:36.000   43.024873402  -70.730820001   -19.6739   2   7   0.0145   0.0135   0.0248  -0.0083   0.0104  -0.0167   0.00    1.0
2025/01/20 16:10:37.000   43.024873479  -70.730819925   -19.6733   2   7   0.0145   0.0135   0.0248  -0.0083   0.0104  -0.0166   0.00    1.0
2025/01/20 16:10:38.000   43.024873441  -70.730820040   -19.6858   2   7   0.0146   0.0133   0.0248  -0.0084   0.0103  -0.0166   0.00    1.0
2025/01/20 16:10:39.000   43.024873505  -70.730819916   -19.6763   2   7   0.0146   0.0135   0.0249  -0.0082   0.0104  -0.0166   0.00    1.0
2025/01/20 16:10:40.000   43.024873520  -70.730819895   -19.6903   2   7   0.0147   0.0135   0.0249  -0.0083   0.0104  -0.0166   0.00    1.0
2025/01/20 16:10:41.000   43.024873486  -70.730819992   -19.6766   2   7   0.0146   0.0133   0.0249  -0.0084   0.0104  -0.0166   0.00    1.0
2025/01/20 16:10:42.000   43.024873538  -70.730819935   -19.6903   2   7   0.0146   0.0134   0.0249  -0.0083   0.0103  -0.0166   0.00    1.0
2025/01/20 16:10:43.000   43.024873580  -70.730819877   -19.6829   2   7   0.0146   0.0135   0.0249  -0.0084   0.0104  -0.0166   0.00    1.0
2025/01/20 16:10:44.000   43.024873585  -70.730819837   -19.6773   2   7   0.0146   0.0135   0.0249  -0.0083   0.0104  -0.0166   0.00    1.0
2025/01/20 16:10:45.000   43.024873631  -70.730819858   -19.7021   2   7   0.0147   0.0135   0.0249  -0.0083   0.0103  -0.0167   0.00    1.0
2025/01/20 16:10:46.000   43.024873624  -70.730819801   -19.6890   2   7   0.0146   0.0135   0.0249  -0.0083   0.0104  -0.0166   0.00    1.0
2025/01/20 16:10:47.000   43.024873632  -70.730819712   -19.6962   2   7   0.0146   0.0136   0.0249  -0.0083   0.0104  -0.0167   0.00    1.0
2025/01/20 16:10:48.000   43.024873695  -70.730819759   -19.6943   2   7   0.0146   0.0135   0.0249  -0.0083   0.0103  -0.0167   0.00    1.0
2025/01/20 16:10:49.000   43.024873668  -70.730819728   -19.6973   2   7   0.0146   0.0135   0.0249  -0.0084   0.0103  -0.0167   0.00    1.0
2025/01/20 16:10:50.000   43.024873727  -70.730819675   -19.6967   2   7   0.0146   0.0135   0.0249  -0.0082   0.0103  -0.0166   0.00    1.0
2025/01/20 16:10:51.000   43.024873664  -70.730819725   -19.7004   2   7   0.0147   0.0134   0.0249  -0.0083   0.0104  -0.0167   0.00    1.0
2025/01/20 16:10:52.000   43.024873755  -70.730819641   -19.6977   2   7   0.0146   0.0135   0.0249  -0.0083   0.0103  -0.0167   0.00    1.0
2025/01/20 16:10:53.000   43.024873743  -70.730819721   -19.7064   2   7   0.0145   0.0133   0.0249  -0.0084   0.0103  -0.0167   0.00    1.0
2025/01/20 16:10:54.000   43.024873831  -70.730819496   -19.7060   2   7   0.0147   0.0136   0.0250  -0.0081   0.0104  -0.0167   0.00    1.0
2025/01/20 16:10:55.000   43.024873801  -70.730819586   -19.7071   2   7   0.0147   0.0135   0.0249  -0.0083   0.0103  -0.0167   0.00    1.0
2025/01/20 16:10:56.000   43.024873857  -70.730819520   -19.7062   2   7   0.0148   0.0135   0.0250  -0.0081   0.0104  -0.0166   0.00    1.0
2025/01/20 16:10:57.000   43.024873797  -70.730819604   -19.7082   2   7   0.0146   0.0134   0.0250  -0.0083   0.0103  -0.0167   0.00    1.0
2025/01/20 16:10:58.000   43.024873809  -70.730819534   -19.7184   2   7   0.0146   0.0135   0.0250  -0.0084   0.0103  -0.0167   0.00    1.0
2025/01/20 16:10:59.000   43.024873822  -70.730819577   -19.7159   2   7   0.0146   0.0134   0.0250  -0.0083   0.0103  -0.0167   0.00    1.0
2025/01/20 16:11:00.000   43.024873873  -70.730819553   -19.7259   2   7   0.0147   0.0134   0.0250  -0.0084   0.0102  -0.0167   0.00    1.0
2025/01/20 16:11:01.000   43.024873899  -70.730819541   -19.7282   2   7   0.0147   0.0134   0.0250  -0.0084   0.0102  -0.0167   0.00    1.0
2025/01/20 16:11:02.000   43.024874013  -70.730819355   -19.7332   2   7   0.0146   0.0134   0.0250  -0.0084   0.0103  -0.0167   0.00    1.0
2025/01/20 16:11:03.000   43.024873920  -70.730819379   -19.7326   2   7   0.0147   0.0135   0.0251  -0.0084   0.0103  -0.0167   0.00    1.0
2025/01/20 16:11:04.000   43.024873960  -70.730819464   -19.7292   2   7   0.0146   0.0134   0.0250  -0.0084   0.0103  -0.0168   0.00    1.0
2025/01/20 16:11:05.000   43.024874046  -70.730819369   -19.7353   2   7   0.0147   0.0135   0.0251  -0.0083   0.0103  -0.0167   0.00    1.0
2025/01/20 16:11:06.000   43.024874109  -70.730819237   -19.7361   2   7   0.0149   0.0136   0.0251  -0.0081   0.0103  -0.0167   0.00    1.0
2025/01/20 16:11:07.000   43.024874075  -70.730819243   -19.7427   2   7   0.0148   0.0135   0.0250  -0.0082   0.0103  -0.0167   0.00    1.0
2025/01/20 16:11:08.000   43.024874096  -70.730819230   -19.7392   2   7   0.0148   0.0135   0.0251  -0.0081   0.0102  -0.0167   0.00    1.0
2025/01/20 16:11:09.000   43.024874038  -70.730819296   -19.7489   2   7   0.0146   0.0134   0.0250  -0.0084   0.0101  -0.0168   0.00    1.0
2025/01/20 16:11:10.000   43.024874108  -70.730819248   -19.7373   2   7   0.0148   0.0134   0.0251  -0.0083   0.0102  -0.0168   0.00    1.0
2025/01/20 16:11:11.000   43.024874153  -70.730819117   -19.7523   2   7   0.0147   0.0135   0.0251  -0.0082   0.0103  -0.0167   0.00    1.0
2025/01/20 16:11:12.000   43.024874151  -70.730819182   -19.7537   2   7   0.0148   0.0135   0.0251  -0.0083   0.0103  -0.0167   0.00    1.0
2025/01/20 16:11:13.000   43.024874224  -70.730819083   -19.7526   2   7   0.0147   0.0135   0.0251  -0.0081   0.0102  -0.0168   0.00    1.0
2025/01/20 16:11:14.000   43.024874274  -70.730819036   -19.7594   2   7   0.0148   0.0136   0.0251  -0.0081   0.0102  -0.0168   0.00    1.0
2025/01/20 16:11:15.000   43.024874277  -70.730818984   -19.7499   2   7   0.0148   0.0136   0.0251  -0.0082   0.0102  -0.0168   0.00    1.0
2025/01/20 16:11:16.000   43.024874256  -70.730819076   -19.7738   2   7   0.0146   0.0134   0.0251  -0.0083   0.0102  -0.0169   0.00    1.0
2025/01/20 16:11:17.000   43.024874341  -70.730818931   -19.7625   2   7   0.0148   0.0136   0.0252  -0.0081   0.0102  -0.0167   0.00    1.0
2025/01/20 16:11:18.000   43.024874371  -70.730818897   -19.7654   2   7   0.0149   0.0136   0.0251  -0.0081   0.0102  -0.0167   0.00    1.0
2025/01/20 16:11:19.000   43.024874318  -70.730818919   -19.7722   2   7   0.0146   0.0135   0.0251  -0.0082   0.0102  -0.0168   0.00    1.0
2025/01/20 16:11:20.000   43.024874381  -70.730818788   -19.7619   2   7   0.0148   0.0136   0.0251  -0.0080   0.0102  -0.0168   0.00    1.0
2025/01/20 16:11:21.000   43.024874418  -70.730818859   -19.7800   2   7   0.0148   0.0135   0.0252  -0.0081   0.0102  -0.0168   0.00    1.0
2025/01/20 16:11:22.000   43.024874360  -70.730818892   -19.7803   2   7   0.0148   0.0134   0.0252  -0.0083   0.0102  -0.0168   0.00    1.0
2025/01/20 16:11:23.000   43.024874464  -70.730818851   -19.7868   2   7   0.0148   0.0135   0.0252  -0.0081   0.0102  -0.0168   0.00    1.0
2025/01/20 16:11:24.000   43.024874440  -70.730818771   -19.7777   2   7   0.0147   0.0135   0.0252  -0.0082   0.0102  -0.0168   0.00    1.0
2025/01/20 16:11:25.000   43.024874530  -70.730818725   -19.7808   2   7   0.0149   0.0135   0.0252  -0.0081   0.0102  -0.0168   0.00    1.0
2025/01/20 16:11:26.000   43.024874544  -70.730818591   -19.7801   2   7   0.0148   0.0137   0.0252  -0.0080   0.0103  -0.0168   0.00    1.0
2025/01/20 16:11:27.000   43.024874598  -70.730818609   -19.7967   2   7   0.0148   0.0137   0.0252  -0.0080   0.0102  -0.0168   0.00    1.0
2025/01/20 16:11:28.000   43.024874598  -70.730818606   -19.7967   2   7   0.0148   0.0135   0.0252  -0.0080   0.0101  -0.0168   0.00    1.0
2025/01/20 16:11:29.000   43.024874574  -70.730818660   -19.7995   2   7   0.0147   0.0135   0.0252  -0.0082   0.0102  -0.0169   0.00    1.0
2025/01/20 16:11:30.000   43.024874614  -70.730818562   -19.7987   2   7   0.0148   0.0136   0.0252  -0.0082   0.0102  -0.0169   0.00    1.0
2025/01/20 16:11:31.000   43.024874569  -70.730818695   -19.8177   2   7   0.0147   0.0135   0.0252  -0.0084   0.0101  -0.0169   0.00    1.0
2025/01/20 16:11:32.000   43.024874669  -70.730818543   -19.8195   2   7   0.0149   0.0136   0.0252  -0.0081   0.0102  -0.0169   0.00    1.0
2025/01/20 16:11:33.000   43.024874748  -70.730818449   -19.8011   2   7   0.0149   0.0136   0.0253  -0.0080   0.0102  -0.0168   0.00    1.0
2025/01/20 16:11:34.000   43.024874746  -70.730818387   -19.8053   2   7   0.0149   0.0136   0.0253  -0.0080   0.0102  -0.0168   0.00    1.0
2025/01/20 16:11:35.000   43.024874776  -70.730818418   -19.8107   2   7   0.0149   0.0135   0.0253  -0.0081   0.0102  -0.0169   0.00    1.0
2025/01/20 16:11:36.000   43.024874729  -70.730818441   -19.8236   2   7   0.0148   0.0135   0.0253  -0.0081   0.0101  -0.0169   0.00    1.0
2025/01/20 16:11:37.000   43.024874815  -70.730818392   -19.8286   2   7   0.0148   0.0135   0.0253  -0.0081   0.0101  -0.0169   0.00    1.0
2025/01/20 16:11:38.000   43.024874800  -70.730818385   -19.8230   2   7   0.0148   0.0135   0.0253  -0.0082   0.0102  -0.0169   0.00    1.0
2025/01/20 16:11:39.000   43.024874795  -70.730818400   -19.8387   2   7   0.0148   0.0135   0.0253  -0.0081   0.0101  -0.0169   0.00    1.0
2025/01/20 16:11:40.000   43.024874843  -70.730818284   -19.8264   2   7   0.0149   0.0136   0.0253  -0.0082   0.0101  -0.0169   0.00    1.0
2025/01/20 16:11:41.000   43.024874925  -70.730818128   -19.8318   2   7   0.0148   0.0136   0.0253  -0.0081   0.0102  -0.0169   0.00    1.0
2025/01/20 16:11:42.000   43.024874908  -70.730818217   -19.8322   2   7   0.0149   0.0135   0.0253  -0.0082   0.0101  -0.0169   0.00    1.0
2025/01/20 16:11:43.000   43.024874924  -70.730818147   -19.8371   2   7   0.0148   0.0136   0.0253  -0.0081   0.0100  -0.0169   0.00    1.0
2025/01/20 16:11:44.000   43.024874970  -70.730818061   -19.8256   2   7   0.0148   0.0136   0.0254  -0.0080   0.0102  -0.0169   0.00    1.0
2025/01/20 16:11:45.000   43.024874986  -70.730818128   -19.8450   2   7   0.0148   0.0135   0.0254  -0.0081   0.0101  -0.0169   0.00    1.1
2025/01/20 16:11:46.000   43.024875006  -70.730818130   -19.8456   2   7   0.0149   0.0135   0.0253  -0.0081   0.0100  -0.0170   0.00    1.1
2025/01/20 16:11:47.000   43.024875017  -70.730818098   -19.8440   2   7   0.0149   0.0135   0.0254  -0.0081   0.0101  -0.0169   0.00    1.1
2025/01/20 16:11:48.000   43.024875013  -70.730818073   -19.8490   2   7   0.0148   0.0135   0.0254  -0.0081   0.0101  -0.0170   0.00    1.1
2025/01/20 16:11:49.000   43.024875121  -70.730817967   -19.8568   2   7   0.0149   0.0136   0.0254  -0.0080   0.0101  -0.0169   0.00    1.1
2025/01/20 16:11:50.000   43.024875115  -70.730818004   -19.8583   2   7   0.0149   0.0135   0.0254  -0.0081   0.0101  -0.0169   0.00    1.1
2025/01/20 16:11:51.000   43.024875169  -70.730817911   -19.8548   2   7   0.0149   0.0136   0.0254  -0.0080   0.0101  -0.0169   0.00    1.1
2025/01/20 16:11:52.000   43.024875181  -70.730817865   -19.8535   2   7   0.0149   0.0136   0.0254  -0.0080   0.0101  -0.0169   0.00    1.1
2025/01/20 16:11:53.000   43.024875220  -70.730817861   -19.8582   2   7   0.0149   0.0135   0.0254  -0.0080   0.0100  -0.0169   0.00    1.1
2025/01/20 16:11:54.000   43.024875218  -70.730817806   -19.8688   2   7   0.0148   0.0137   0.0254  -0.0080   0.0101  -0.0170   0.00    1.1
2025/01/20 16:11:55.000   43.024875258  -70.730817830   -19.8838   2   7   0.0149   0.0136   0.0255  -0.0080   0.0100  -0.0169   0.00    1.1
2025/01/20 16:11:56.000   43.024875296  -70.730817788   -19.8846   2   7   0.0149   0.0135   0.0254  -0.0081   0.0101  -0.0170   0.00    1.1
2025/01/20 16:11:57.000   43.024875361  -70.730817633   -19.8682   2   7   0.0149   0.0137   0.0254  -0.0079   0.0101  -0.0170   0.00    1.1
2025/01/20 16:11:58.000   43.024875029  -70.730817235   -19.8739   2   7   0.0148   0.0137   0.0255  -0.0080   0.0101  -0.0170   0.00    1.1
2025/01/20 16:11:59.000   43.024872958  -70.730813863   -19.8119   2   7   0.0149   0.0134   0.0255  -0.0081   0.0100  -0.0170   0.00    1.1
2025/01/20 16:12:00.000   43.024873028  -70.730810225   -19.7730   2   7   0.0149   0.0135   0.0255  -0.0080   0.0101  -0.0170   0.00    1.1
2025/01/20 16:12:01.000   43.024872720  -70.730811262   -19.7798   2   7   0.0149   0.0136   0.0254  -0.0080   0.0101  -0.0170   0.00    1.1
2025/01/20 16:12:02.000   43.024871134  -70.730814388   -19.8093   2   7   0.0149   0.0136   0.0255  -0.0080   0.0101  -0.0170   0.00    1.1
2025/01/20 16:12:03.000   43.024870849  -70.730813934   -19.7921   2   7   0.0148   0.0136   0.0255  -0.0080   0.0100  -0.0170   0.00    1.1
2025/01/20 16:12:04.000   43.024869365  -70.730814688   -19.7726   2   7   0.0149   0.0137   0.0255  -0.0080   0.0100  -0.0170   0.00    1.1
2025/01/20 16:12:05.000   43.024866252  -70.730815054   -19.8121   2   7   0.0149   0.0135   0.0254  -0.0080   0.0100  -0.0171   0.00    1.1
2025/01/20 16:12:06.000   43.024862876  -70.730819755   -19.7221   2   7   0.0149   0.0136   0.0255  -0.0080   0.0100  -0.0170   0.00    1.1
2025/01/20 16:12:07.000   43.024858276  -70.730823668   -19.7438   2   7   0.0150   0.0136   0.0255  -0.0080   0.0100  -0.0170   0.00    1.1
2025/01/20 16:12:08.000   43.024852599  -70.730828836   -19.7954   2   7   0.0149   0.0136   0.0255  -0.0080   0.0100  -0.0170   0.00    1.1
2025/01/20 16:12:09.000   43.024845784  -70.730833341   -19.7976   2   7   0.0149   0.0136   0.0255  -0.0080   0.0100  -0.0170   0.00    1.1
2025/01/20 16:12:10.000   43.024840461  -70.730839228   -19.7678   2   7   0.0149   0.0137   0.0256  -0.0079   0.0101  -0.0170   0.00    1.1
2025/01/20 16:12:11.000   43.024834377  -70.730842614   -19.6623   2   7   0.0150   0.0137   0.0255  -0.0079   0.0100  -0.0170   0.00    1.1
2025/01/20 16:12:12.000   43.024829471  -70.730845980   -19.7710   2   7   0.0150   0.0136   0.0256  -0.0080   0.0100  -0.0170   0.00    1.1
2025/01/20 16:12:13.000   43.024829246  -70.730847388   -19.7936   2   7   0.0150   0.0137   0.0255  -0.0079   0.0100  -0.0171   0.00    1.1
2025/01/20 16:12:14.000   43.024828889  -70.730847129   -19.7872   2   7   0.0149   0.0135   0.0255  -0.0082   0.0099  -0.0171   0.00    1.1
2025/01/20 16:12:15.000   43.024829019  -70.730847072   -19.7940   2   7   0.0149   0.0137   0.0256  -0.0080   0.0100  -0.0170   0.00    1.1
2025/01/20 16:12:16.000   43.024827774  -70.730840576   -19.6571   2   7   0.0149   0.0137   0.0256  -0.0080   0.0100  -0.0171   0.00    1.1
2025/01/20 16:12:17.000   43.024825782  -70.730835596   -19.6686   2   7   0.0149   0.0136   0.0256  -0.0081   0.0099  -0.0171   0.00    1.1
2025/01/20 16:12:18.000   43.024822608  -70.730829543   -19.7431   2   7   0.0150   0.0137   0.0256  -0.0079   0.0100  -0.0171   0.00    1.1
2025/01/20 16:12:19.000   43.024818756  -70.730824277   -19.8598   2   7   0.0149   0.0136   0.0256  -0.0080   0.0100  -0.0171   0.00    1.1
2025/01/20 16:12:20.000   43.024815250  -70.730816001   -19.8891   2   7   0.0149   0.0135   0.0256  -0.0081   0.0099  -0.0171   0.00    1.1
2025/01/20 16:12:21.000   43.024813102  -70.730806320   -19.9339   2   7   0.0149   0.0136   0.0256  -0.0079   0.0100  -0.0171   0.00    1.1
2025/01/20 16:12:22.000   43.024808798  -70.730801727   -19.9588   2   7   0.0150   0.0137   0.0256  -0.0078   0.0100  -0.0171   0.00    1.0
2025/01/20 16:12:23.000   43.024806681  -70.730794571   -19.9778   2   7   0.0150   0.0137   0.0256  -0.0079   0.0100  -0.0171   0.00    1.0
2025/01/20 16:12:24.000   43.024803828  -70.730786157   -20.0349   2   7   0.0150   0.0136   0.0256  -0.0078   0.0100  -0.0171   0.00    1.0
2025/01/20 16:12:25.000   43.024799213  -70.730778698   -20.0718   2   7   0.0149   0.0136   0.0256  -0.0080   0.0099  -0.0171   0.00    1.0
2025/01/20 16:12:26.000   43.024795804  -70.730770495   -20.1035   2   7   0.0149   0.0136   0.0256  -0.0078   0.0100  -0.0171   0.00    1.0
2025/01/20 16:12:27.000   43.024792466  -70.730762340   -20.1997   2   7   0.0150   0.0136   0.0257  -0.0079   0.0100  -0.0171   0.00    1.0
2025/01/20 16:12:28.000   43.024789139  -70.730752754   -20.2900   2   7   0.0149   0.0136   0.0257  -0.0080   0.0099  -0.0171   0.00    1.0
2025/01/20 16:12:29.000   43.024785173  -70.730744271   -20.3571   2   7   0.0150   0.0137   0.0257  -0.0079   0.0099  -0.0171   0.00    1.0
2025/01/20 16:12:30.000   43.024781080  -70.730735606   -20.4156   2   7   0.0150   0.0137   0.0257  -0.0079   0.0099  -0.0171   0.00    1.0
2025/01/20 16:12:31.000   43.024777283  -70.730727916   -20.4885   2   7   0.0150   0.0137   0.0257  -0.0079   0.0099  -0.0171   0.00    1.0
2025/01/20 16:12:32.000   43.024773572  -70.730719656   -20.5536   2   7   0.0150   0.0136   0.0257  -0.0080   0.0099  -0.0171   0.00    1.0
2025/01/20 16:12:33.000   43.024768469  -70.730710691   -20.6221   2   7   0.0150   0.0136   0.0257  -0.0079   0.0099  -0.0171   0.00    1.0
2025/01/20 16:12:34.000   43.024764972  -70.730702683   -20.6861   2   7   0.0149   0.0137   0.0257  -0.0079   0.0099  -0.0171   0.00    1.0
2025/01/20 16:12:35.000   43.024761407  -70.730695775   -20.7180   2   7   0.0149   0.0136   0.0257  -0.0081   0.0099  -0.0172   0.00    1.0
2025/01/20 16:12:36.000   43.024757839  -70.730687709   -20.7725   2   7   0.0150   0.0136   0.0257  -0.0080   0.0099  -0.0171   0.00    1.0
2025/01/20 16:12:37.000   43.024753832  -70.730679531   -20.8167   2   7   0.0150   0.0136   0.0257  -0.0079   0.0099  -0.0171   0.00    1.0
2025/01/20 16:12:38.000   43.024748927  -70.730670522   -20.8580   2   7   0.0150   0.0136   0.0257  -0.0080   0.0099  -0.0171   0.00    1.0
2025/01/20 16:12:39.000   43.024745647  -70.730661774   -20.8937   2   7   0.0151   0.0137   0.0257  -0.0080   0.0099  -0.0171   0.00    1.0
2025/01/20 16:12:40.000   43.024741926  -70.730653337   -20.9715   2   7   0.0150   0.0136   0.0258  -0.0080   0.0099  -0.0171   0.00    1.0
2025/01/20 16:12:41.000   43.024737184  -70.730645236   -21.0041   2   7   0.0150   0.0138   0.0257  -0.0077   0.0099  -0.0171   0.00    1.0
2025/01/20 16:12:42.000   43.024732305  -70.730636764   -21.1143   2   7   0.0149   0.0137   0.0257  -0.0080   0.0099  -0.0172   0.00    1.0
2025/01/20 16:12:43.000   43.024727501  -70.730628228   -21.2007   2   7   0.0150   0.0136   0.0258  -0.0079   0.0099  -0.0172   0.00    1.0
2025/01/20 16:12:44.000   43.024723590  -70.730618963   -21.3037   2   8   0.0150   0.0136   0.0258  -0.0080   0.0099  -0.0171   0.00    1.0
2025/01/20 16:12:45.000   43.024719537  -70.730609744   -21.3923   2   8   0.0149   0.0136   0.0247  -0.0077   0.0092  -0.0168   0.00    1.0
2025/01/20 16:12:46.000   43.024715431  -70.730598919   -21.5198   2   8   0.0149   0.0136   0.0247  -0.0077   0.0092  -0.0168   0.00    1.0
2025/01/20 16:12:47.000   43.024710933  -70.730588612   -21.6271   2   8   0.0150   0.0136   0.0247  -0.0077   0.0093  -0.0168   0.00    1.0
2025/01/20 16:12:48.000   43.024706849  -70.730576663   -21.7942   2   8   0.0149   0.0137   0.0247  -0.0077   0.0093  -0.0168   0.00    1.0
2025/01/20 16:12:49.000   43.024702843  -70.730567935   -21.9258   2   8   0.0150   0.0136   0.0247  -0.0076   0.0092  -0.0168   0.00    1.0
2025/01/20 16:12:50.000   43.024699279  -70.730559681   -22.0164   2   8   0.0148   0.0135   0.0247  -0.0078   0.0091  -0.0169   0.00    1.0
2025/01/20 16:12:51.000   43.024695738  -70.730549880   -22.0813   2   8   0.0149   0.0135   0.0247  -0.0078   0.0092  -0.0168   0.00    1.0
2025/01/20 16:12:52.000   43.024692337  -70.730540276   -22.1829   2   8   0.0150   0.0136   0.0248  -0.0077   0.0092  -0.0168   0.00    1.0
2025/01/20 16:12:53.000   43.024687966  -70.730529721   -22.2756   2   8   0.0149   0.0135   0.0247  -0.0077   0.0091  -0.0168   0.00    1.0
2025/01/20 16:12:54.000   43.024683685  -70.730520546   -22.3722   2   8   0.0150   0.0136   0.0247  -0.0077   0.0091  -0.0168   0.00    1.0
2025/01/20 16:12:55.000   43.024679221  -70.730510501   -22.4303   2   8   0.0150   0.0136   0.0247  -0.0077   0.0091  -0.0169   0.00    1.0
2025/01/20 16:12:56.000   43.024674638  -70.730501212   -22.4628   2   8   0.0151   0.0136   0.0248  -0.0077   0.0092  -0.0168   0.00    1.0
2025/01/20 16:12:57.000   43.024670170  -70.730491969   -22.5233   2   8   0.0150   0.0136   0.0248  -0.0077   0.0091  -0.0168   0.00    1.0
2025/01/20 16:12:58.000   43.024666211  -70.730482758   -22.5559   2   8   0.0150   0.0135   0.0248  -0.0077   0.0091  -0.0168   0.00    1.0
2025/01/20 16:12:59.000   43.024661067  -70.730473074   -22.5999   2   8   0.0149   0.0136   0.0248  -0.0077   0.0092  -0.0169   0.00    1.0
2025/01/20 16:13:00.000   43.024656844  -70.730463044   -22.6334   2   8   0.0150   0.0135   0.0248  -0.0078   0.0091  -0.0169   0.00    1.0
2025/01/20 16:13:01.000   43.024652996  -70.730453317   -22.6712   2   8   0.0151   0.0136   0.0247  -0.0077   0.0091  -0.0169   0.00    1.0
2025/01/20 16:13:02.000   43.024649061  -70.730442942   -22.7146   2   8   0.0149   0.0136   0.0248  -0.0077   0.0091  -0.0169   0.00    1.0
2025/01/20 16:13:03.000   43.024644945  -70.730433325   -22.7312   2   8   0.0150   0.0137   0.0248  -0.0075   0.0092  -0.0169   0.00    1.0
2025/01/20 16:13:04.000   43.024640147  -70.730423363   -22.7601   2   8   0.0150   0.0136   0.0248  -0.0078   0.0091  -0.0169   0.00    1.0
2025/01/20 16:13:05.000   43.024635245  -70.730413747   -22.7723   2   8   0.0151   0.0136   0.0248  -0.0077   0.0091  -0.0168   0.00    1.0
2025/01/20 16:13:06.000   43.024630202  -70.730402679   -22.7933   2   8   0.0148   0.0137   0.0248  -0.0076   0.0092  -0.0169   0.00    1.0
2025/01/20 16:13:07.000   43.024626267  -70.730393309   -22.8357   2   8   0.0150   0.0137   0.0249  -0.0076   0.0091  -0.0169   0.00    1.0
2025/01/20 16:13:08.000   43.024620814  -70.730382791   -22.8404   2   8   0.0151   0.0136   0.0249  -0.0076   0.0092  -0.0169   0.00    1.0
2025/01/20 16:13:09.000   43.024616917  -70.730371814   -22.8765   2   8   0.0149   0.0136   0.0249  -0.0077   0.0091  -0.0169   0.00    1.0
2025/01/20 16:13:10.000   43.024612231  -70.730360674   -22.9191   2   8   0.0150   0.0135   0.0249  -0.0077   0.0091  -0.0169   0.00    1.0
2025/01/20 16:13:11.000   43.024607253  -70.730350259   -22.9196   2   8   0.0152   0.0137   0.0249  -0.0075   0.0092  -0.0169   0.00    1.0
2025/01/20 16:13:12.000   43.024602637  -70.730337869   -22.9562   2   8   0.0150   0.0137   0.0249  -0.0077   0.0092  -0.0169   0.00    1.0
2025/01/20 16:13:13.000   43.024598755  -70.730327291   -22.9505   2   8   0.0150   0.0137   0.0249  -0.0077   0.0092  -0.0169   0.00    1.0
2025/01/20 16:13:14.000   43.024594372  -70.730316347   -22.9923   2   8   0.0149   0.0136   0.0249  -0.0078   0.0091  -0.0169   0.00    1.0
2025/01/20 16:13:15.000   43.024590098  -70.730303827   -22.9996   2   8   0.0149   0.0136   0.0249  -0.0078   0.0091  -0.0170   0.00    1.0
2025/01/20 16:13:16.000   43.024586339  -70.730293519   -23.0353   2   8   0.0150   0.0136   0.0250  -0.0076   0.0091  -0.0169   0.00    1.0
2025/01/20 16:13:17.000   43.024582499  -70.730282525   -23.0639   2   8   0.0151   0.0137   0.0249  -0.0076   0.0091  -0.0169   0.00    1.0
2025/01/20 16:13:18.000   43.024577766  -70.730271548   -23.0739   2   8   0.0151   0.0136   0.0249  -0.0076   0.0091  -0.0169   0.00    1.0
2025/01/20 16:13:19.000   43.024574046  -70.730260221   -23.1014   2   8   0.0151   0.0136   0.0249  -0.0076   0.0091  -0.0169   0.00    1.0
2025/01/20 16:13:20.000   43.024569948  -70.730250289   -23.1199   2   8   0.0151   0.0137   0.0250  -0.0076   0.0092  -0.0169   0.00    1.0
2025/01/20 16:13:21.000   43.024564936  -70.730239708   -23.1408   2   8   0.0150   0.0136   0.0250  -0.0077   0.0091  -0.0169   0.00    1.0
2025/01/20 16:13:22.000   43.024560451  -70.730229240   -23.1609   2   8   0.0150   0.0136   0.0249  -0.0076   0.0091  -0.0170   0.00    1.0
2025/01/20 16:13:23.000   43.024555529  -70.730218306   -23.1837   2   8   0.0150   0.0136   0.0250  -0.0077   0.0091  -0.0169   0.00    1.1
2025/01/20 16:13:24.000   43.024550651  -70.730207133   -23.1833   2   8   0.0150   0.0136   0.0250  -0.0077   0.0091  -0.0170   0.00    1.1
2025/01/20 16:13:25.000   43.024545798  -70.730197159   -23.1925   2   8   0.0150   0.0137   0.0250  -0.0077   0.0090  -0.0170   0.00    1.1
2025/01/20 16:13:26.000   43.024540526  -70.730186293   -23.2045   2   8   0.0150   0.0136   0.0250  -0.0078   0.0091  -0.0170   0.00    1.1
2025/01/20 16:13:27.000   43.024535150  -70.730175044   -23.2179   2   8   0.0149   0.0136   0.0250  -0.0075   0.0091  -0.0170   0.00    1.1
2025/01/20 16:13:28.000   43.024530417  -70.730162813   -23.2142   2   8   0.0151   0.0137   0.0250  -0.0075   0.0090  -0.0169   0.00    1.1
2025/01/20 16:13:29.000   43.024524966  -70.730153065   -23.2412   2   8   0.0150   0.0135   0.0250  -0.0077   0.0090  -0.0170   0.00    1.1
2025/01/20 16:13:30.000   43.024519875  -70.730141212   -23.2794   2   8   0.0149   0.0137   0.0250  -0.0076   0.0091  -0.0170   0.00    1.1
2025/01/20 16:13:31.000   43.024515023  -70.730128882   -23.3161   2   8   0.0150   0.0137   0.0250  -0.0076   0.0091  -0.0170   0.00    1.1
2025/01/20 16:13:32.000   43.024508928  -70.730115890   -23.3408   2   8   0.0150   0.0136   0.0250  -0.0076   0.0091  -0.0170   0.00    1.0
2025/01/20 16:13:33.000   43.024503473  -70.730105828   -23.3706   2   8   0.0150   0.0136   0.0250  -0.0077   0.0091  -0.0170   0.00    1.0
2025/01/20 16:13:34.000   43.024498537  -70.730093777   -23.3599   2   8   0.0151   0.0136   0.0250  -0.0077   0.0090  -0.0170   0.00    1.0
2025/01/20 16:13:35.000   43.024494574  -70.730083045   -23.4394   2   8   0.0151   0.0136   0.0250  -0.0076   0.0091  -0.0170   0.00    1.0
2025/01/20 16:13:36.000   43.024490245  -70.730071159   -23.4691   2   8   0.0151   0.0137   0.0251  -0.0076   0.0091  -0.0170   0.00    1.0
2025/01/20 16:13:37.000   43.024485901  -70.730060712   -23.5198   2   8   0.0150   0.0136   0.0251  -0.0076   0.0090  -0.0170   0.00    1.0
2025/01/20 16:13:38.000   43.024481109  -70.730048909   -23.5524   2   8   0.0150   0.0136   0.0251  -0.0076   0.0090  -0.0170   0.00    1.0
2025/01/20 16:13:39.000   43.024477371  -70.730038453   -23.6128   2   8   0.0150   0.0137   0.0251  -0.0075   0.0091  -0.0170   0.00    1.0
2025/01/20 16:13:40.000   43.024472695  -70.730028154   -23.6535   2   8   0.0150   0.0137   0.0251  -0.0075   0.0091  -0.0170   0.00    1.1
2025/01/20 16:13:41.000   43.024467556  -70.730017296   -23.6841   2   8   0.0150   0.0136   0.0251  -0.0078   0.0090  -0.0170   0.00    1.1
2025/01/20 16:13:42.000   43.024463598  -70.730006895   -23.7443   2   8   0.0150   0.0136   0.0251  -0.0077   0.0090  -0.0170   0.00    1.1
2025/01/20 16:13:43.000   43.024459142  -70.729996769   -23.7700   2   8   0.0151   0.0137   0.0251  -0.0076   0.0090  -0.0170   0.00    1.1
2025/01/20 16:13:44.000   43.024454569  -70.729986039   -23.8192   2   8   0.0151   0.0137   0.0251  -0.0075   0.0090  -0.0170   0.00    1.1
2025/01/20 16:13:45.000   43.024450290  -70.729975378   -23.8781   2   8   0.0150   0.0138   0.0251  -0.0076   0.0091  -0.0170   0.00    1.1
2025/01/20 16:13:46.000   43.024446119  -70.729964652   -23.9380   2   8   0.0150   0.0136   0.0251  -0.0076   0.0090  -0.0170   0.00    1.1
2025/01/20 16:13:47.000   43.024442162  -70.729953645   -23.9925   2   8   0.0151   0.0137   0.0251  -0.0076   0.0091  -0.0170   0.00    1.1
2025/01/20 16:13:48.000   43.024438538  -70.729943082   -24.0396   2   8   0.0150   0.0136   0.0251  -0.0077   0.0090  -0.0171   0.00    1.1
2025/01/20 16:13:49.000   43.024434732  -70.729931638   -24.0581   2   8   0.0150   0.0137   0.0251  -0.0076   0.0090  -0.0170   0.00    1.1
2025/01/20 16:13:50.000   43.024430807  -70.729922882   -24.0858   2   8   0.0151   0.0137   0.0252  -0.0077   0.0090  -0.0170   0.00    1.1
2025/01/20 16:13:51.000   43.024431892  -70.729916143   -24.1114   2   8   0.0151   0.0136   0.0252  -0.0077   0.0090  -0.0170   0.00    1.1
2025/01/20 16:13:52.000   43.024435627  -70.729919968   -24.1107   2   8   0.0150   0.0137   0.0251  -0.0077   0.0090  -0.0171   0.00    1.1
2025/01/20 16:13:53.000   43.024443459  -70.729925192   -24.0581   2   8   0.0151   0.0137   0.0252  -0.0075   0.0091  -0.0170   0.00    1.1
2025/01/20 16:13:54.000   43.024450317  -70.729927793   -24.0510   2   8   0.0151   0.0137   0.0252  -0.0075   0.0091  -0.0171   0.00    1.1
2025/01/20 16:13:55.000   43.024457829  -70.729934005   -24.0680   2   8   0.0150   0.0136   0.0252  -0.0077   0.0090  -0.0171   0.00    1.1
2025/01/20 16:13:56.000   43.024463932  -70.729942930   -24.0000   2   8   0.0150   0.0136   0.0252  -0.0077   0.0090  -0.0171   0.00    1.1
2025/01/20 16:13:57.000   43.024470186  -70.729950842   -23.9653   2   8   0.0150   0.0136   0.0252  -0.0076   0.0091  -0.0170   0.00    1.1
2025/01/20 16:13:58.000   43.024478187  -70.729952417   -23.9518   2   8   0.0151   0.0137   0.0252  -0.0076   0.0090  -0.0171   0.00    1.1
2025/01/20 16:13:59.000   43.024486526  -70.729954202   -23.9748   2   8   0.0150   0.0136   0.0252  -0.0078   0.0089  -0.0171   0.00    1.1
2025/01/20 16:14:00.000   43.024493900  -70.729958614   -23.9052   2   8   0.0150   0.0137   0.0252  -0.0076   0.0090  -0.0171   0.00    1.1
2025/01/20 16:14:01.000   43.024501072  -70.729967275   -23.8902   2   8   0.0151   0.0137   0.0252  -0.0077   0.0090  -0.0171   0.00    1.1
2025/01/20 16:14:02.000   43.024506808  -70.729976670   -23.8492   2   8   0.0150   0.0138   0.0253  -0.0075   0.0091  -0.0171   0.00    1.1
2025/01/20 16:14:03.000   43.024512090  -70.729984284   -23.8144   2   8   0.0151   0.0138   0.0253  -0.0074   0.0091  -0.0170   0.00    1.1
2025/01/20 16:14:04.000   43.024517164  -70.729992389   -23.8096   2   8   0.0151   0.0137   0.0253  -0.0076   0.0091  -0.0170   0.00    1.1
2025/01/20 16:14:05.000   43.024520790  -70.730003018   -23.7607   2   8   0.0151   0.0137   0.0252  -0.0076   0.0090  -0.0170   0.00    1.1
2025/01/20 16:14:06.000   43.024525506  -70.730015058   -23.6995   2   8   0.0151   0.0137   0.0253  -0.0076   0.0090  -0.0171   0.00    1.1
2025/01/20 16:14:07.000   43.024530355  -70.730025306   -23.6674   2   8   0.0150   0.0138   0.0253  -0.0075   0.0090  -0.0171   0.00    1.1
2025/01/20 16:14:08.000   43.024534953  -70.730036885   -23.6567   2   8   0.0150   0.0137   0.0253  -0.0076   0.0090  -0.0171   0.00    1.1
2025/01/20 16:14:09.000   43.024538545  -70.730048116   -23.6296   2   8   0.0151   0.0137   0.0253  -0.0076   0.0091  -0.0170   0.00    1.1
2025/01/20 16:14:10.000   43.024543740  -70.730059228   -23.6354   2   8   0.0150   0.0137   0.0253  -0.0076   0.0090  -0.0171   0.00    1.1
2025/01/20 16:14:11.000   43.024548212  -70.730070174   -23.5684   2   8   0.0151   0.0137   0.0253  -0.0075   0.0090  -0.0171   0.00    1.0
2025/01/20 16:14:12.000   43.024552857  -70.730082207   -23.5746   2   8   0.0150   0.0137   0.0253  -0.0077   0.0090  -0.0171   0.00    1.0
2025/01/20 16:14:13.000   43.024557279  -70.730093422   -23.5185   2   8   0.0151   0.0138   0.0253  -0.0075   0.0090  -0.0171   0.00    1.0
2025/01/20 16:14:14.000   43.024561769  -70.730103916   -23.4810   2   8   0.0150   0.0137   0.0253  -0.0076   0.0090  -0.0171   0.00    1.0
2025/01/20 16:14:15.000   43.024568017  -70.730114009   -23.4892   2   8   0.0150   0.0137   0.0253  -0.0077   0.0090  -0.0171   0.00    1.0
2025/01/20 16:14:16.000   43.024572749  -70.730125633   -23.4689   2   8   0.0151   0.0138   0.0253  -0.0075   0.0090  -0.0171   0.00    1.0
2025/01/20 16:14:17.000   43.024577832  -70.730137722   -23.4732   2   8   0.0150   0.0138   0.0253  -0.0075   0.0090  -0.0171   0.00    1.0
2025/01/20 16:14:18.000   43.024583455  -70.730151442   -23.4900   2   8   0.0150   0.0137   0.0253  -0.0077   0.0090  -0.0171   0.00    1.0
2025/01/20 16:14:19.000   43.024587764  -70.730163503   -23.4412   2   8   0.0150   0.0137   0.0253  -0.0078   0.0090  -0.0171   0.00    1.0
2025/01/20 16:14:20.000   43.024593628  -70.730176107   -23.4457   2   8   0.0150   0.0137   0.0253  -0.0077   0.0090  -0.0171   0.00    1.0
2025/01/20 16:14:21.000   43.024599546  -70.730189234   -23.4206   2   8   0.0150   0.0137   0.0253  -0.0076   0.0090  -0.0171   0.00    1.0
2025/01/20 16:14:22.000   43.024604344  -70.730202089   -23.4130   2   8   0.0149   0.0137   0.0254  -0.0077   0.0090  -0.0171   0.00    1.0
2025/01/20 16:14:23.000   43.024610122  -70.730214856   -23.4020   2   8   0.0150   0.0137   0.0254  -0.0076   0.0090  -0.0171   0.00    1.0
2025/01/20 16:14:24.000   43.024615643  -70.730227064   -23.4128   2   8   0.0151   0.0137   0.0254  -0.0077   0.0090  -0.0171   0.00    1.0
2025/01/20 16:14:25.000   43.024621456  -70.730238980   -23.4488   2   8   0.0150   0.0137   0.0254  -0.0076   0.0090  -0.0171   0.00    1.0
2025/01/20 16:14:26.000   43.024626650  -70.730250646   -23.4343   2   8   0.0150   0.0138   0.0254  -0.0076   0.0091  -0.0171   0.00    1.0
2025/01/20 16:14:27.000   43.024631507  -70.730262601   -23.4068   2   8   0.0150   0.0138   0.0254  -0.0076   0.0090  -0.0171   0.00    1.0
2025/01/20 16:14:28.000   43.024636476  -70.730274671   -23.4092   2   8   0.0150   0.0137   0.0254  -0.0076   0.0090  -0.0171   0.00    1.0
2025/01/20 16:14:29.000   43.024641373  -70.730286469   -23.3284   2   8   0.0151   0.0137   0.0254  -0.0076   0.0090  -0.0171   0.00    1.0
2025/01/20 16:14:30.000   43.024647620  -70.730296205   -23.3414   2   8   0.0149   0.0137   0.0254  -0.0076   0.0090  -0.0171   0.00    1.0
2025/01/20 16:14:31.000   43.024653260  -70.730307696   -23.3367   2   8   0.0151   0.0137   0.0254  -0.0076   0.0090  -0.0171   0.00    1.0
2025/01/20 16:14:32.000   43.024659982  -70.730319830   -23.3433   2   8   0.0150   0.0137   0.0254  -0.0076   0.0091  -0.0171   0.00    1.0
2025/01/20 16:14:33.000   43.024664894  -70.730332049   -23.3470   2   8   0.0151   0.0137   0.0254  -0.0075   0.0090  -0.0171   0.00    1.0
2025/01/20 16:14:34.000   43.024669153  -70.730342996   -23.3147   2   8   0.0150   0.0137   0.0254  -0.0077   0.0090  -0.0171   0.00    1.0
2025/01/20 16:14:35.000   43.024673550  -70.730354117   -23.3255   2   8   0.0150   0.0137   0.0254  -0.0076   0.0090  -0.0171   0.00    1.0
2025/01/20 16:14:36.000   43.024678717  -70.730365985   -23.2813   2   8   0.0150   0.0139   0.0254  -0.0074   0.0091  -0.0171   0.00    1.0
2025/01/20 16:14:37.000   43.024683737  -70.730378354   -23.2720   2   8   0.0150   0.0137   0.0254  -0.0077   0.0090  -0.0171   0.00    1.0
2025/01/20 16:14:38.000   43.024688078  -70.730388964   -23.2661   2   8   0.0150   0.0138   0.0254  -0.0076   0.0090  -0.0171   0.00    1.0
2025/01/20 16:14:39.000   43.024693239  -70.730399719   -23.2274   2   8   0.0150   0.0138   0.0254  -0.0075   0.0091  -0.0171   0.00    1.0
2025/01/20 16:14:40.000   43.024698540  -70.730411881   -23.2337   2   8   0.0150   0.0137   0.0255  -0.0077   0.0090  -0.0171   0.00    1.0
2025/01/20 16:14:41.000   43.024703697  -70.730423095   -23.2081   2   8   0.0149   0.0138   0.0255  -0.0077   0.0090  -0.0171   0.00    1.0
2025/01/20 16:14:42.000   43.024709249  -70.730434163   -23.1783   2   8   0.0150   0.0137   0.0254  -0.0077   0.0090  -0.0172   0.00    1.0
2025/01/20 16:14:43.000   43.024714177  -70.730446369   -23.1244   2   8   0.0150   0.0137   0.0255  -0.0077   0.0091  -0.0171   0.00    1.0
2025/01/20 16:14:44.000   43.024718689  -70.730459320   -23.0601   2   8   0.0150   0.0138   0.0255  -0.0076   0.0090  -0.0171   0.00    1.0
2025/01/20 16:14:45.000   43.024723201  -70.730471007   -23.0164   2   8   0.0150   0.0137   0.0255  -0.0078   0.0090  -0.0171   0.00    1.0
2025/01/20 16:14:46.000   43.024728473  -70.730482797   -22.9658   2   8   0.0150   0.0137   0.0255  -0.0077   0.0090  -0.0171   0.00    1.0
2025/01/20 16:14:47.000   43.024732929  -70.730494769   -22.8631   2   8   0.0150   0.0137   0.0255  -0.0077   0.0091  -0.0171   0.00    1.0
2025/01/20 16:14:48.000   43.024737527  -70.730506893   -22.7885   2   8   0.0149   0.0138   0.0255  -0.0075   0.0091  -0.0171   0.00    1.0
2025/01/20 16:14:49.000   43.024741181  -70.730519983   -22.6920   2   8   0.0150   0.0138   0.0255  -0.0077   0.0091  -0.0171   0.00    1.0
2025/01/20 16:14:50.000   43.024745382  -70.730531592   -22.6208   2   8   0.0150   0.0137   0.0255  -0.0077   0.0090  -0.0171   0.00    1.0
2025/01/20 16:14:51.000   43.024749891  -70.730544056   -22.4767   2   8   0.0149   0.0137   0.0255  -0.0077   0.0090  -0.0171   0.00    1.0
2025/01/20 16:14:52.000   43.024753392  -70.730556437   -22.3363   2   8   0.0149   0.0138   0.0255  -0.0077   0.0090  -0.0171   0.00    1.0
2025/01/20 16:14:53.000   43.024758267  -70.730568050   -22.2103   2   8   0.0150   0.0138   0.0255  -0.0075   0.0090  -0.0171   0.00    1.0
2025/01/20 16:14:54.000   43.024762326  -70.730579273   -22.0865   2   8   0.0149   0.0137   0.0255  -0.0077   0.0090  -0.0171   0.00    1.0
2025/01/20 16:14:55.000   43.024766205  -70.730590317   -21.9796   2   8   0.0150   0.0138   0.0255  -0.0077   0.0091  -0.0171   0.00    1.0
2025/01/20 16:14:56.000   43.024770708  -70.730599850   -21.9052   2   8   0.0149   0.0137   0.0255  -0.0077   0.0091  -0.0171   0.00    1.0
2025/01/20 16:14:57.000   43.024775151  -70.730610628   -21.7595   2   8   0.0150   0.0138   0.0255  -0.0076   0.0091  -0.0171   0.00    1.0
2025/01/20 16:14:58.000   43.024778910  -70.730620943   -21.6737   2   8   0.0150   0.0138   0.0256  -0.0076   0.0091  -0.0171   0.00    1.0
2025/01/20 16:14:59.000   43.024783678  -70.730631049   -21.6325   2   8   0.0149   0.0138   0.0256  -0.0077   0.0090  -0.0171   0.00    1.0
2025/01/20 16:15:00.000   43.024789407  -70.730641320   -21.5860   2   8   0.0149   0.0137   0.0255  -0.0077   0.0091  -0.0171   0.00    1.0
2025/01/20 16:15:01.000   43.024793039  -70.730652112   -21.5155   2   8   0.0149   0.0137   0.0256  -0.0077   0.0091  -0.0171   0.00    1.0
2025/01/20 16:15:02.000   43.024797222  -70.730662158   -21.4708   2   8   0.0150   0.0138   0.0256  -0.0076   0.0091  -0.0171   0.00    1.0
2025/01/20 16:15:03.000   43.024802651  -70.730672449   -21.4268   2   8   0.0149   0.0138   0.0256  -0.0076   0.0091  -0.0171   0.00    1.0
2025/01/20 16:15:04.000   43.024806939  -70.730683777   -21.3573   2   8   0.0149   0.0137   0.0256  -0.0077   0.0091  -0.0171   0.00    1.0
2025/01/20 16:15:05.000   43.024811102  -70.730692952   -21.2860   2   8   0.0150   0.0138   0.0256  -0.0077   0.0091  -0.0171   0.00    1.0
2025/01/20 16:15:06.000   43.024815904  -70.730705073   -21.2016   2   8   0.0149   0.0138   0.0256  -0.0076   0.0091  -0.0171   0.00    1.0
2025/01/20 16:15:07.000   43.024819984  -70.730713854   -21.1529   2   8   0.0149   0.0138   0.0256  -0.0077   0.0091  -0.0171   0.00    1.0
2025/01/20 16:15:08.000   43.024825145  -70.730725991   -21.0875   2   8   0.0149   0.0137   0.0256  -0.0078   0.0091  -0.0171   0.00    1.0
2025/01/20 16:15:09.000   43.024829739  -70.730734991   -20.9877   2   8   0.0149   0.0138   0.0256  -0.0077   0.0091  -0.0171   0.00    1.0
2025/01/20 16:15:10.000   43.024834826  -70.730744160   -20.9575   2   8   0.0149   0.0137   0.0256  -0.0077   0.0091  -0.0171   0.00    1.0
2025/01/20 16:15:11.000   43.024838847  -70.730753733   -20.8997   2   8   0.0149   0.0138   0.0256  -0.0077   0.0091  -0.0171   0.00    1.0
2025/01/20 16:15:12.000   43.024842991  -70.730763407   -20.8658   2   8   0.0149   0.0138   0.0256  -0.0077   0.0091  -0.0171   0.00    1.0
2025/01/20 16:15:13.000   43.024847991  -70.730773649   -20.7991   2   8   0.0150   0.0138   0.0257  -0.0077   0.0091  -0.0171   0.00    1.0
2025/01/20 16:15:14.000   43.024852991  -70.730784537   -20.7736   2   8   0.0150   0.0139   0.0257  -0.0076   0.0092  -0.0171   0.00    1.0
2025/01/20 16:15:15.000   43.024857815  -70.730795493   -20.7444   2   8   0.0150   0.0138   0.0257  -0.0077   0.0092  -0.0171   0.00    1.0
2025/01/20 16:15:16.000   43.024861327  -70.730804151   -20.7096   2   8   0.0149   0.0137   0.0257  -0.0078   0.0092  -0.0171   0.00    1.0
2025/01/20 16:15:17.000   43.024865482  -70.730810810   -20.6898   2   8   0.0149   0.0138   0.0257  -0.0078   0.0092  -0.0172   0.00    1.0
2025/01/20 16:15:18.000   43.024870866  -70.730810312   -20.6816   2   8   0.0149   0.0138   0.0258  -0.0077   0.0092  -0.0172   0.00    1.0
2025/01/20 16:15:19.000   43.024873669  -70.730806527   -20.6667   2   8   0.0149   0.0138   0.0259  -0.0077   0.0093  -0.0172   0.00    1.0
2025/01/20 16:15:20.000   43.024879017  -70.730799668   -20.7288   2   8   0.0149   0.0138   0.0262  -0.0078   0.0095  -0.0173   0.00    1.0
2025/01/20 16:15:21.000   43.024882562  -70.730792733   -20.8411   2   7   0.0150   0.0138   0.0264  -0.0080   0.0096  -0.0174   0.00    1.2
2025/01/20 16:15:22.000   43.024882949  -70.730792881   -20.8518   2   7   0.0150   0.0138   0.0264  -0.0079   0.0096  -0.0174   0.00    1.2
2025/01/20 16:15:23.000   43.024881458  -70.730787381   -20.7698   2   7   0.0150   0.0138   0.0264  -0.0079   0.0096  -0.0174   0.00    1.2
2025/01/20 16:15:24.000   43.024878797  -70.730780399   -20.7569   2   7   0.0150   0.0138   0.0264  -0.0079   0.0096  -0.0174   0.00    1.2
2025/01/20 16:15:25.000   43.024875685  -70.730770802   -20.7682   2   7   0.0150   0.0139   0.0264  -0.0080   0.0097  -0.0174   0.00    1.2
2025/01/20 16:15:26.000   43.024871666  -70.730759837   -20.7697   2   8   0.0150   0.0138   0.0261  -0.0079   0.0094  -0.0173   0.00    1.0
2025/01/20 16:15:27.000   43.024867590  -70.730749124   -20.8293   2   8   0.0149   0.0138   0.0260  -0.0079   0.0093  -0.0173   0.00    1.0
2025/01/20 16:15:28.000   43.024863709  -70.730739211   -20.8526   2   8   0.0150   0.0138   0.0260  -0.0078   0.0093  -0.0173   0.00    1.0
2025/01/20 16:15:29.000   43.024859776  -70.730730407   -20.8834   2   8   0.0150   0.0138   0.0261  -0.0078   0.0094  -0.0173   0.00    1.0
2025/01/20 16:15:30.000   43.024855584  -70.730721212   -20.9519   2   8   0.0149   0.0138   0.0258  -0.0078   0.0092  -0.0172   0.00    1.0
2025/01/20 16:15:31.000   43.024851415  -70.730711025   -21.0100   2   8   0.0150   0.0138   0.0258  -0.0077   0.0092  -0.0172   0.00    1.0
2025/01/20 16:15:32.000   43.024847459  -70.730700404   -21.1203   2   8   0.0149   0.0138   0.0258  -0.0078   0.0091  -0.0172   0.00    1.0
2025/01/20 16:15:33.000   43.024843078  -70.730690275   -21.2119   2   8   0.0149   0.0138   0.0258  -0.0078   0.0092  -0.0172   0.00    1.0
2025/01/20 16:15:34.000   43.024838244  -70.730679501   -21.3076   2   8   0.0149   0.0138   0.0258  -0.0078   0.0092  -0.0172   0.00    1.0
2025/01/20 16:15:35.000   43.024834255  -70.730668497   -21.4091   2   8   0.0149   0.0137   0.0258  -0.0079   0.0092  -0.0172   0.00    1.0
2025/01/20 16:15:36.000   43.024829853  -70.730657406   -21.5089   2   8   0.0150   0.0138   0.0258  -0.0077   0.0092  -0.0172   0.00    1.0
2025/01/20 16:15:37.000   43.024826162  -70.730646625   -21.5975   2   8   0.0149   0.0138   0.0258  -0.0078   0.0092  -0.0172   0.00    1.0
2025/01/20 16:15:38.000   43.024822137  -70.730636418   -21.6264   2   8   0.0149   0.0138   0.0258  -0.0078   0.0092  -0.0172   0.00    1.0
2025/01/20 16:15:39.000   43.024817962  -70.730626067   -21.6860   2   8   0.0150   0.0138   0.0258  -0.0077   0.0092  -0.0172   0.00    1.0
2025/01/20 16:15:40.000   43.024812863  -70.730616360   -21.7294   2   8   0.0149   0.0138   0.0258  -0.0078   0.0092  -0.0172   0.00    1.0
2025/01/20 16:15:41.000   43.024808383  -70.730606211   -21.8226   2   8   0.0148   0.0137   0.0258  -0.0080   0.0092  -0.0172   0.00    1.0
2025/01/20 16:15:42.000   43.024804277  -70.730595904   -21.9158   2   8   0.0149   0.0138   0.0258  -0.0079   0.0092  -0.0172   0.00    1.0
2025/01/20 16:15:43.000   43.024799450  -70.730584437   -22.0168   2   8   0.0150   0.0138   0.0258  -0.0078   0.0092  -0.0172   0.00    1.0
2025/01/20 16:15:44.000   43.024795346  -70.730572351   -22.1712   2   8   0.0149   0.0138   0.0258  -0.0077   0.0092  -0.0172   0.00    1.0
2025/01/20 16:15:45.000   43.024790851  -70.730560877   -22.2704   2   8   0.0149   0.0138   0.0258  -0.0079   0.0092  -0.0172   0.00    1.0
2025/01/20 16:15:46.000   43.024786540  -70.730548837   -22.4179   2   8   0.0150   0.0139   0.0258  -0.0077   0.0092  -0.0172   0.00    1.0
2025/01/20 16:15:47.000   43.024781311  -70.730536815   -22.5713   2   8   0.0148   0.0137   0.0258  -0.0080   0.0092  -0.0172   0.00    1.0
2025/01/20 16:15:48.000   43.024777041  -70.730524246   -22.7056   2   8   0.0148   0.0138   0.0258  -0.0079   0.0092  -0.0172   0.00    1.0
2025/01/20 16:15:49.000   43.024772730  -70.730512777   -22.8354   2   8   0.0149   0.0137   0.0258  -0.0080   0.0092  -0.0172   0.00    1.0
2025/01/20 16:15:50.000   43.024767799  -70.730501817   -22.9344   2   8   0.0149   0.0138   0.0258  -0.0078   0.0092  -0.0172   0.00    1.0
2025/01/20 16:15:51.000   43.024763179  -70.730489872   -23.0698   2   8   0.0149   0.0137   0.0258  -0.0078   0.0092  -0.0172   0.00    1.0
2025/01/20 16:15:52.000   43.024759666  -70.730477812   -23.1591   2   8   0.0149   0.0138   0.0258  -0.0078   0.0092  -0.0172   0.00    1.0
2025/01/20 16:15:53.000   43.024755045  -70.730465121   -23.2181   2   8   0.0148   0.0138   0.0258  -0.0079   0.0092  -0.0172   0.00    1.0
2025/01/20 16:15:54.000   43.024749936  -70.730453987   -23.2832   2   8   0.0149   0.0138   0.0258  -0.0078   0.0092  -0.0172   0.00    1.0
2025/01/20 16:15:55.000   43.024744288  -70.730442478   -23.3601   2   8   0.0149   0.0138   0.0258  -0.0079   0.0093  -0.0172   0.00    1.0
2025/01/20 16:15:56.000   43.024739125  -70.730430470   -23.3816   2   8   0.0148   0.0138   0.0258  -0.0078   0.0092  -0.0172   0.00    1.0
2025/01/20 16:15:57.000   43.024734097  -70.730421111   -23.3900   2   8   0.0149   0.0138   0.0258  -0.0079   0.0092  -0.0172   0.00    1.0
2025/01/20 16:15:58.000   43.024730473  -70.730412459   -23.4512   2   8   0.0149   0.0138   0.0258  -0.0078   0.0092  -0.0172   0.00    1.0
2025/01/20 16:15:59.000   43.024727878  -70.730407523   -23.4830   2   8   0.0148   0.0138   0.0259  -0.0080   0.0092  -0.0172   0.00    1.0
2025/01/20 16:16:00.000   43.024724262  -70.730400143   -23.5060   2   8   0.0149   0.0138   0.0258  -0.0078   0.0093  -0.0172   0.00    1.0
2025/01/20 16:16:01.000   43.024721715  -70.730391147   -23.5660   2   8   0.0149   0.0138   0.0259  -0.0079   0.0093  -0.0172   0.00    1.1
2025/01/20 16:16:02.000   43.024718993  -70.730380035   -23.5817   2   8   0.0148   0.0139   0.0259  -0.0078   0.0093  -0.0172   0.00    1.1
2025/01/20 16:16:03.000   43.024715272  -70.730368585   -23.6126   2   8   0.0149   0.0138   0.0259  -0.0079   0.0093  -0.0172   0.00    1.1
2025/01/20 16:16:04.000   43.024712562  -70.730357155   -23.6010   2   8   0.0148   0.0137   0.0259  -0.0080   0.0093  -0.0172   0.00    1.1
2025/01/20 16:16:05.000   43.024709509  -70.730345667   -23.6013   2   8   0.0149   0.0138   0.0259  -0.0079   0.0093  -0.0172   0.00    1.1
2025/01/20 16:16:06.000   43.024706768  -70.730335558   -23.6252   2   8   0.0148   0.0138   0.0259  -0.0080   0.0093  -0.0172   0.00    1.1
2025/01/20 16:16:07.000   43.024703003  -70.730323290   -23.6966   2   8   0.0149   0.0138   0.0259  -0.0079   0.0093  -0.0172   0.00    1.1
2025/01/20 16:16:08.000   43.024700853  -70.730311477   -23.7013   2   8   0.0147   0.0138   0.0259  -0.0079   0.0093  -0.0172   0.00    1.1
2025/01/20 16:16:09.000   43.024697795  -70.730301018   -23.7424   2   8   0.0148   0.0138   0.0259  -0.0079   0.0093  -0.0172   0.00    1.1
2025/01/20 16:16:10.000   43.024694330  -70.730289545   -23.7551   2   8   0.0149   0.0138   0.0259  -0.0079   0.0093  -0.0172   0.00    1.1
2025/01/20 16:16:11.000   43.024690099  -70.730278141   -23.7404   2   8   0.0148   0.0138   0.0259  -0.0080   0.0093  -0.0172   0.00    1.1
2025/01/20 16:16:12.000   43.024685663  -70.730266940   -23.7246   2   8   0.0148   0.0138   0.0259  -0.0078   0.0093  -0.0172   0.00    1.1
2025/01/20 16:16:13.000   43.024682735  -70.730254487   -23.7290   2   8   0.0149   0.0138   0.0259  -0.0079   0.0094  -0.0172   0.00    1.1
2025/01/20 16:16:14.000   43.024677141  -70.730244419   -23.7472   2   8   0.0148   0.0138   0.0259  -0.0079   0.0093  -0.0172   0.00    1.1
2025/01/20 16:16:15.000   43.024670793  -70.730234140   -23.7638   2   8   0.0148   0.0139   0.0259  -0.0079   0.0093  -0.0172   0.00    1.1
2025/01/20 16:16:16.000   43.024665424  -70.730222993   -23.8192   2   8   0.0149   0.0138   0.0259  -0.0080   0.0093  -0.0172   0.00    1.1
