% program   : RTKPOST ver.2.4.2
% inp file  : C:\Users\Melissa\Documents\Survey_Data\January_3PS_Exp_2025\Wallis_Sands\20250118\Rover\82761551.o
% inp file  : C:\Users\Melissa\Documents\Survey_Data\January_3PS_Exp_2025\Wallis_Sands\20250118\Base\nhun018\nhun0180.25o
% inp file  : C:\Users\Melissa\Documents\Survey_Data\January_3PS_Exp_2025\Wallis_Sands\20250118\Base\nhun018\nhun0180.25n
% inp file  : C:\Users\Melissa\Documents\Survey_Data\January_3PS_Exp_2025\Wallis_Sands\20250118\Base\nhun018\igr23496.sp3
% obs start : 2025/01/18 14:39:48.0 GPST (week2349 571188.0s)
% obs end   : 2025/01/18 15:21:45.0 GPST (week2349 573705.0s)
% pos mode  : kinematic
% freqs     : L1+L2+L5
% solution  : combined
% elev mask : 15.0 deg
% dynamics  : off
% tidecorr  : off
% ionos opt : broadcast
% tropo opt : saastamoinen
% ephemeris : broadcast
% navi sys  : gps glonass galileo qzss
% amb res   : continuous
% amb glo   : on
% val thres : 3.0
% antenna1  :                       ( 0.0000  0.0000  0.0000)
% antenna2  :                       ( 0.0000  0.0000  0.0000)
% ref pos   : 43.142559483  -70.951909686     7.9230
%
% (lat/lon/height=WGS84/ellipsoidal,Q=1:fix,2:float,3:sbas,4:dgps,5:single,6:ppp,ns=# of satellites)
%  GPST                  latitude(deg) longitude(deg)  height(m)   Q  ns   sdn(m)   sde(m)   sdu(m)  sdne(m)  sdeu(m)  sdun(m) age(s)  ratio
2025/01/18 14:39:48.000   43.024902679  -70.730799811   -19.8596   2   4   0.6137   0.3504   1.7212  -0.1539  -0.2236   0.7228   0.00    1.7
2025/01/18 14:39:49.000   43.024899941  -70.730788638   -23.3025   2   4   0.0090   0.0080   0.0249   0.0015  -0.0016   0.0104   0.00    2.9
2025/01/18 14:39:50.000   43.024899979  -70.730788677   -23.2896   2   5   0.0089   0.0079   0.0249   0.0016  -0.0015   0.0104   0.00    1.3
2025/01/18 14:39:51.000   43.024900051  -70.730788711   -23.2443   2   5   0.0086   0.0080   0.0178   0.0015   0.0013   0.0076   0.00    1.5
2025/01/18 14:39:52.000   43.024900001  -70.730788736   -23.2467   2   5   0.0085   0.0080   0.0178   0.0001   0.0012   0.0076   0.00    1.5
2025/01/18 14:39:53.000   43.024900045  -70.730788692   -23.2447   2   5   0.0085   0.0078   0.0177   0.0019   0.0004   0.0076   0.00    1.6
2025/01/18 14:39:54.000   43.024900035  -70.730788694   -23.2398   2   5   0.0084   0.0078   0.0177   0.0016   0.0002   0.0076   0.00    1.7
2025/01/18 14:39:55.000   43.024900018  -70.730788698   -23.2458   2   5   0.0084   0.0078   0.0177   0.0014   0.0012   0.0076   0.00    1.7
2025/01/18 14:39:56.000   43.024900043  -70.730788687   -23.2429   2   5   0.0086   0.0081   0.0177   0.0010   0.0016   0.0076   0.00    1.8
2025/01/18 14:39:57.000   43.024900013  -70.730788639   -23.2487   2   5   0.0085   0.0081   0.0178   0.0006   0.0015   0.0076   0.00    1.8
2025/01/18 14:39:58.000   43.024900022  -70.730788708   -23.2515   2   5   0.0085   0.0079   0.0177   0.0016   0.0008   0.0076   0.00    1.8
2025/01/18 14:39:59.000   43.024899968  -70.730788729   -23.2458   2   5   0.0085   0.0078   0.0177   0.0017   0.0014   0.0076   0.00    1.9
2025/01/18 14:40:00.000   43.024899965  -70.730788691   -23.2457   2   5   0.0086   0.0081   0.0177   0.0015   0.0013   0.0076   0.00    2.0
2025/01/18 14:40:01.000   43.024899962  -70.730788722   -23.2475   2   5   0.0086   0.0080   0.0177   0.0015   0.0013   0.0076   0.00    2.0
2025/01/18 14:40:02.000   43.024900006  -70.730788685   -23.2475   2   5   0.0085   0.0079   0.0177   0.0015   0.0012   0.0076   0.00    2.0
2025/01/18 14:40:03.000   43.024899976  -70.730788749   -23.2463   2   5   0.0086   0.0080   0.0177   0.0016   0.0009   0.0076   0.00    1.9
2025/01/18 14:40:04.000   43.024899962  -70.730788693   -23.2507   2   5   0.0086   0.0080   0.0177   0.0017   0.0014   0.0076   0.00    2.0
2025/01/18 14:40:05.000   43.024899985  -70.730788679   -23.2505   2   5   0.0085   0.0079   0.0177   0.0011   0.0017   0.0076   0.00    2.0
2025/01/18 14:40:06.000   43.024899953  -70.730788726   -23.2604   2   5   0.0085   0.0080   0.0177   0.0015   0.0008   0.0076   0.00    2.0
2025/01/18 14:40:07.000   43.024899957  -70.730788712   -23.2508   2   5   0.0085   0.0079   0.0177   0.0021   0.0001   0.0077   0.00    1.9
2025/01/18 14:40:08.000   43.024899992  -70.730788703   -23.2599   2   5   0.0085   0.0078   0.0177   0.0016   0.0015   0.0076   0.00    1.9
2025/01/18 14:40:09.000   43.024899972  -70.730788704   -23.2558   2   5   0.0086   0.0081   0.0178   0.0013   0.0009   0.0076   0.00    1.9
2025/01/18 14:40:10.000   43.024899944  -70.730788695   -23.2610   2   5   0.0086   0.0080   0.0178   0.0010   0.0016   0.0076   0.00    1.9
2025/01/18 14:40:11.000   43.024900039  -70.730788725   -23.2496   2   5   0.0085   0.0080   0.0178   0.0015   0.0012   0.0076   0.00    1.9
2025/01/18 14:40:12.000   43.024900004  -70.730788706   -23.2487   2   5   0.0086   0.0079   0.0177   0.0018   0.0010   0.0076   0.00    1.9
2025/01/18 14:40:13.000   43.024900011  -70.730788712   -23.2471   2   5   0.0086   0.0080   0.0177   0.0010   0.0019   0.0076   0.00    1.9
2025/01/18 14:40:14.000   43.024899996  -70.730788750   -23.2428   2   5   0.0085   0.0079   0.0177   0.0019   0.0010   0.0076   0.00    1.9
2025/01/18 14:40:15.000   43.024899989  -70.730788764   -23.2479   2   5   0.0085   0.0079   0.0177   0.0017   0.0009   0.0077   0.00    1.9
2025/01/18 14:40:16.000   43.024899977  -70.730788749   -23.2495   2   5   0.0086   0.0080   0.0177   0.0020   0.0013   0.0076   0.00    1.8
2025/01/18 14:40:17.000   43.024900003  -70.730788759   -23.2489   2   5   0.0085   0.0079   0.0177   0.0014   0.0010   0.0076   0.00    1.8
2025/01/18 14:40:18.000   43.024899970  -70.730788731   -23.2566   2   5   0.0086   0.0080   0.0177   0.0012   0.0016   0.0076   0.00    1.9
2025/01/18 14:40:19.000   43.024899965  -70.730788746   -23.2586   2   6   0.0086   0.0080   0.0177   0.0018   0.0012   0.0076   0.00    1.5
2025/01/18 14:40:20.000   43.024899951  -70.730788700   -23.2710   2   6   0.0085   0.0078   0.0151   0.0015   0.0039   0.0080   0.00    2.0
2025/01/18 14:40:21.000   43.024899996  -70.730788720   -23.2705   2   6   0.0085   0.0078   0.0151   0.0004   0.0040   0.0080   0.00    2.1
2025/01/18 14:40:22.000   43.024899974  -70.730788728   -23.2783   2   6   0.0085   0.0078   0.0150   0.0016   0.0039   0.0080   0.00    2.1
2025/01/18 14:40:23.000   43.024900017  -70.730788706   -23.2646   2   6   0.0086   0.0079   0.0151   0.0009   0.0040   0.0079   0.00    2.0
2025/01/18 14:40:24.000   43.024899998  -70.730788732   -23.2718   2   6   0.0086   0.0078   0.0151   0.0007   0.0042   0.0080   0.00    2.0
2025/01/18 14:40:25.000   43.024899994  -70.730788691   -23.2694   2   6   0.0085   0.0077   0.0150   0.0009   0.0039   0.0080   0.00    2.0
2025/01/18 14:40:26.000   43.024899969  -70.730788707   -23.2736   2   6   0.0085   0.0078   0.0151  -0.0008   0.0041   0.0079   0.00    2.0
2025/01/18 14:40:27.000   43.024899965  -70.730788715   -23.2673   2   6   0.0085   0.0078   0.0151   0.0012   0.0039   0.0080   0.00    2.0
2025/01/18 14:40:28.000   43.024900020  -70.730788715   -23.2651   2   6   0.0085   0.0078   0.0150   0.0014   0.0039   0.0080   0.00    2.0
2025/01/18 14:40:29.000   43.024900039  -70.730788686   -23.2574   2   6   0.0086   0.0079   0.0151   0.0012   0.0038   0.0080   0.00    1.9
2025/01/18 14:40:30.000   43.024899993  -70.730788729   -23.2709   2   6   0.0085   0.0078   0.0151   0.0012   0.0041   0.0080   0.00    1.9
2025/01/18 14:40:31.000   43.024900018  -70.730788751   -23.2698   2   6   0.0087   0.0079   0.0151   0.0015   0.0041   0.0080   0.00    1.9
2025/01/18 14:40:32.000   43.024899974  -70.730788733   -23.2823   2   6   0.0086   0.0079   0.0151   0.0012   0.0038   0.0080   0.00    1.9
2025/01/18 14:40:33.000   43.024899945  -70.730788734   -23.2721   2   6   0.0085   0.0078   0.0151   0.0014   0.0041   0.0080   0.00    1.9
2025/01/18 14:40:34.000   43.024899983  -70.730788729   -23.2701   2   6   0.0086   0.0079   0.0151   0.0014   0.0038   0.0080   0.00    1.9
2025/01/18 14:40:35.000   43.024899957  -70.730788748   -23.2776   2   6   0.0085   0.0077   0.0151   0.0014   0.0039   0.0080   0.00    1.9
2025/01/18 14:40:36.000   43.024899990  -70.730788700   -23.2728   2   6   0.0086   0.0077   0.0151   0.0016   0.0037   0.0080   0.00    1.9
2025/01/18 14:40:37.000   43.024899991  -70.730788726   -23.2760   2   6   0.0085   0.0079   0.0151   0.0007   0.0040   0.0080   0.00    1.8
2025/01/18 14:40:38.000   43.024899986  -70.730788730   -23.2725   2   6   0.0085   0.0078   0.0151   0.0004   0.0041   0.0080   0.00    1.8
2025/01/18 14:40:39.000   43.024899958  -70.730788751   -23.2733   2   6   0.0086   0.0078   0.0151   0.0008   0.0039   0.0080   0.00    1.8
2025/01/18 14:40:40.000   43.024899949  -70.730788682   -23.2679   2   6   0.0085   0.0077   0.0150   0.0015   0.0037   0.0080   0.00    1.8
2025/01/18 14:40:41.000   43.024899885  -70.730788754   -23.2950   2   6   0.0086   0.0079   0.0151   0.0008   0.0037   0.0080   0.00    1.7
2025/01/18 14:40:42.000   43.024899847  -70.730788770   -23.3015   2   6   0.0086   0.0077   0.0151   0.0019   0.0041   0.0080   0.00    1.7
2025/01/18 14:40:43.000   43.024899887  -70.730788818   -23.2903   2   6   0.0085   0.0078   0.0151   0.0013   0.0040   0.0080   0.00    1.7
2025/01/18 14:40:44.000   43.024899876  -70.730788837   -23.2936   2   6   0.0086   0.0077   0.0151   0.0014   0.0040   0.0080   0.00    1.7
2025/01/18 14:40:45.000   43.024899942  -70.730788868   -23.2845   2   6   0.0086   0.0078   0.0151   0.0014   0.0038   0.0080   0.00    1.6
2025/01/18 14:40:46.000   43.024899971  -70.730788858   -23.2858   2   6   0.0085   0.0077   0.0151   0.0013   0.0038   0.0080   0.00    1.6
2025/01/18 14:40:47.000   43.024899990  -70.730788824   -23.2807   2   6   0.0085   0.0078   0.0151   0.0014   0.0038   0.0080   0.00    1.6
2025/01/18 14:40:48.000   43.024899911  -70.730788790   -23.2872   2   6   0.0086   0.0080   0.0151  -0.0005   0.0040   0.0080   0.00    1.5
2025/01/18 14:40:49.000   43.024899943  -70.730788842   -23.2935   2   6   0.0085   0.0079   0.0151   0.0014   0.0041   0.0080   0.00    1.5
2025/01/18 14:40:50.000   43.024899905  -70.730788869   -23.3019   2   6   0.0086   0.0079   0.0151  -0.0005   0.0040   0.0080   0.00    1.5
2025/01/18 14:40:51.000   43.024899903  -70.730788878   -23.2966   2   6   0.0085   0.0078   0.0151   0.0016   0.0038   0.0080   0.00    1.5
2025/01/18 14:40:52.000   43.024899954  -70.730788878   -23.2964   2   6   0.0085   0.0078   0.0151   0.0012   0.0040   0.0080   0.00    1.4
2025/01/18 14:40:53.000   43.024900069  -70.730788634   -23.2675   2   6   0.0085   0.0079   0.0151  -0.0006   0.0040   0.0080   0.00    1.4
2025/01/18 14:40:54.000   43.024899955  -70.730788771   -23.2912   2   6   0.0085   0.0078   0.0151   0.0009   0.0041   0.0080   0.00    1.4
2025/01/18 14:40:55.000   43.024899990  -70.730788779   -23.2868   2   6   0.0086   0.0079   0.0151   0.0010   0.0037   0.0080   0.00    1.4
2025/01/18 14:40:56.000   43.024899963  -70.730788734   -23.2938   2   6   0.0085   0.0078   0.0151   0.0015   0.0039   0.0080   0.00    1.4
2025/01/18 14:40:57.000   43.024899981  -70.730788770   -23.2917   2   6   0.0085   0.0077   0.0151   0.0015   0.0041   0.0080   0.00    1.4
2025/01/18 14:40:58.000   43.024899935  -70.730788786   -23.2960   2   6   0.0085   0.0077   0.0150   0.0017   0.0038   0.0081   0.00    1.3
2025/01/18 14:40:59.000   43.024899996  -70.730788754   -23.2823   2   6   0.0085   0.0078   0.0151   0.0014   0.0038   0.0080   0.00    1.3
2025/01/18 14:41:00.000   43.024900004  -70.730788765   -23.2832   2   6   0.0085   0.0078   0.0150   0.0010   0.0041   0.0081   0.00    1.3
2025/01/18 14:41:01.000   43.024900010  -70.730788756   -23.2828   2   6   0.0085   0.0076   0.0151   0.0018   0.0039   0.0081   0.00    1.3
2025/01/18 14:41:02.000   43.024899995  -70.730788768   -23.2916   2   6   0.0086   0.0078   0.0151   0.0003   0.0041   0.0080   0.00    1.3
2025/01/18 14:41:03.000   43.024899980  -70.730788758   -23.2841   2   6   0.0086   0.0078   0.0151   0.0008   0.0040   0.0080   0.00    1.3
2025/01/18 14:41:04.000   43.024899995  -70.730788779   -23.2861   2   6   0.0085   0.0077   0.0151   0.0010   0.0039   0.0080   0.00    1.2
2025/01/18 14:41:05.000   43.024899980  -70.730788767   -23.2864   2   6   0.0086   0.0078   0.0151   0.0008   0.0040   0.0080   0.00    1.2
2025/01/18 14:41:06.000   43.024899980  -70.730788793   -23.2920   2   6   0.0086   0.0078   0.0151   0.0018   0.0040   0.0080   0.00    1.2
2025/01/18 14:41:07.000   43.024900006  -70.730788761   -23.2869   2   6   0.0086   0.0078   0.0151   0.0015   0.0038   0.0080   0.00    1.2
2025/01/18 14:41:08.000   43.024899995  -70.730788811   -23.2957   2   6   0.0086   0.0081   0.0151  -0.0010   0.0040   0.0080   0.00    1.2
2025/01/18 14:41:09.000   43.024899988  -70.730788776   -23.2923   2   6   0.0085   0.0078   0.0151   0.0001   0.0042   0.0080   0.00    1.2
2025/01/18 14:41:10.000   43.024899971  -70.730788761   -23.2924   2   6   0.0086   0.0078   0.0151   0.0018   0.0038   0.0080   0.00    1.2
2025/01/18 14:41:11.000   43.024899957  -70.730788752   -23.2962   2   6   0.0086   0.0078   0.0151   0.0011   0.0038   0.0080   0.00    1.2
2025/01/18 14:41:12.000   43.024899944  -70.730788826   -23.3038   2   6   0.0085   0.0078   0.0151   0.0015   0.0041   0.0080   0.00    1.1
2025/01/18 14:41:13.000   43.024899900  -70.730788781   -23.3009   2   6   0.0086   0.0080   0.0151   0.0011   0.0041   0.0080   0.00    1.1
2025/01/18 14:41:14.000   43.024899973  -70.730788744   -23.2889   2   6   0.0086   0.0078   0.0151   0.0010   0.0042   0.0080   0.00    1.1
2025/01/18 14:41:15.000   43.024899925  -70.730788762   -23.2990   2   6   0.0086   0.0079   0.0151   0.0005   0.0043   0.0080   0.00    1.1
2025/01/18 14:41:16.000   43.024899950  -70.730788758   -23.3031   2   6   0.0085   0.0077   0.0151   0.0016   0.0039   0.0081   0.00    1.1
2025/01/18 14:41:17.000   43.024899967  -70.730788748   -23.3023   2   6   0.0086   0.0077   0.0151   0.0017   0.0040   0.0080   0.00    1.1
2025/01/18 14:41:18.000   43.024899981  -70.730788779   -23.2981   2   6   0.0085   0.0078   0.0151   0.0008   0.0041   0.0080   0.00    1.1
2025/01/18 14:41:19.000   43.024899979  -70.730788742   -23.2952   2   6   0.0086   0.0078   0.0151   0.0013   0.0040   0.0080   0.00    1.1
2025/01/18 14:41:20.000   43.024899935  -70.730788728   -23.3017   2   6   0.0086   0.0078   0.0151   0.0017   0.0039   0.0081   0.00    1.1
2025/01/18 14:41:21.000   43.024899893  -70.730788735   -23.3071   2   6   0.0086   0.0079   0.0151   0.0008   0.0040   0.0080   0.00    1.1
2025/01/18 14:41:22.000   43.024899902  -70.730788761   -23.3020   2   6   0.0086   0.0077   0.0151   0.0017   0.0039   0.0081   0.00    1.1
2025/01/18 14:41:23.000   43.024899901  -70.730788726   -23.3064   2   6   0.0086   0.0077   0.0151   0.0014   0.0039   0.0081   0.00    1.0
2025/01/18 14:41:24.000   43.024899934  -70.730788744   -23.3063   2   6   0.0086   0.0078   0.0151   0.0007   0.0038   0.0080   0.00    1.0
2025/01/18 14:41:25.000   43.024899949  -70.730788725   -23.3007   2   6   0.0086   0.0077   0.0151   0.0015   0.0038   0.0080   0.00    1.0
2025/01/18 14:41:26.000   43.024899940  -70.730788693   -23.3026   2   6   0.0085   0.0078   0.0151   0.0012   0.0041   0.0080   0.00    1.0
2025/01/18 14:41:27.000   43.024899915  -70.730788742   -23.3094   2   6   0.0086   0.0078   0.0151   0.0009   0.0042   0.0080   0.00    1.0
2025/01/18 14:41:28.000   43.024899940  -70.730788719   -23.2939   2   6   0.0086   0.0079   0.0151   0.0015   0.0038   0.0080   0.00    1.0
2025/01/18 14:41:29.000   43.024899914  -70.730788763   -23.3156   2   6   0.0085   0.0077   0.0151   0.0011   0.0041   0.0080   0.00    1.0
2025/01/18 14:41:30.000   43.024899903  -70.730788727   -23.3008   2   6   0.0085   0.0076   0.0151   0.0016   0.0041   0.0080   0.00    1.0
2025/01/18 14:41:31.000   43.024899860  -70.730788718   -23.3096   2   6   0.0085   0.0078   0.0151   0.0016   0.0042   0.0080   0.00    1.0
2025/01/18 14:41:32.000   43.024899886  -70.730788772   -23.3139   2   6   0.0086   0.0078   0.0151   0.0008   0.0039   0.0081   0.00    1.0
2025/01/18 14:41:33.000   43.024899942  -70.730788763   -23.3009   2   6   0.0086   0.0079   0.0151   0.0012   0.0039   0.0080   0.00    1.0
2025/01/18 14:41:34.000   43.024899919  -70.730788729   -23.3034   2   6   0.0086   0.0078   0.0151   0.0014   0.0040   0.0080   0.00    1.0
2025/01/18 14:41:35.000   43.024899974  -70.730788739   -23.2943   2   6   0.0086   0.0079   0.0151   0.0016   0.0040   0.0080   0.00    1.0
2025/01/18 14:41:36.000   43.024899928  -70.730788736   -23.2965   2   6   0.0086   0.0078   0.0151   0.0013   0.0040   0.0080   0.00    1.0
2025/01/18 14:41:37.000   43.024899899  -70.730788746   -23.3021   2   6   0.0086   0.0077   0.0151   0.0020   0.0039   0.0081   0.00    1.0
2025/01/18 14:41:38.000   43.024899831  -70.730788763   -23.3126   2   6   0.0086   0.0078   0.0151   0.0016   0.0039   0.0081   0.00    1.0
2025/01/18 14:41:39.000   43.024899880  -70.730788781   -23.3034   2   6   0.0086   0.0077   0.0151   0.0016   0.0039   0.0081   0.00    1.0
2025/01/18 14:41:40.000   43.024899853  -70.730788762   -23.2988   2   6   0.0086   0.0077   0.0151   0.0018   0.0039   0.0081   0.00    1.0
2025/01/18 14:41:41.000   43.024899849  -70.730788787   -23.2984   2   6   0.0086   0.0079   0.0151  -0.0004   0.0040   0.0080   0.00    1.0
2025/01/18 14:41:42.000   43.024899881  -70.730788796   -23.3012   2   6   0.0086   0.0077   0.0151   0.0019   0.0041   0.0081   0.00    1.0
2025/01/18 14:41:43.000   43.024899935  -70.730788818   -23.2995   2   6   0.0086   0.0078   0.0151   0.0017   0.0043   0.0081   0.00    1.0
2025/01/18 14:41:44.000   43.024899775  -70.730787909   -23.2846   2   6   0.0086   0.0078   0.0151   0.0014   0.0041   0.0081   0.00    1.0
2025/01/18 14:41:45.000   43.024899359  -70.730788408   -23.3034   2   6   0.0087   0.0080   0.0151   0.0015   0.0042   0.0080   0.00    1.0
2025/01/18 14:41:46.000   43.024899406  -70.730788334   -23.2811   2   6   0.0086   0.0078   0.0151   0.0007   0.0041   0.0080   0.00    1.0
2025/01/18 14:41:47.000   43.024899187  -70.730788534   -23.2904   2   6   0.0085   0.0077   0.0151   0.0012   0.0042   0.0080   0.00    1.0
2025/01/18 14:41:48.000   43.024899124  -70.730788634   -23.3027   2   6   0.0085   0.0077   0.0151   0.0020   0.0038   0.0081   0.00    1.0
2025/01/18 14:41:49.000   43.024899061  -70.730788604   -23.3000   2   6   0.0086   0.0079   0.0151   0.0013   0.0041   0.0080   0.00    1.0
2025/01/18 14:41:50.000   43.024899074  -70.730788649   -23.2950   2   6   0.0085   0.0077   0.0151   0.0015   0.0040   0.0080   0.00    1.0
2025/01/18 14:41:51.000   43.024899015  -70.730788590   -23.3077   2   6   0.0086   0.0078   0.0151   0.0015   0.0038   0.0080   0.00    1.0
2025/01/18 14:41:52.000   43.024899141  -70.730788524   -23.2938   2   6   0.0086   0.0078   0.0151   0.0013   0.0040   0.0081   0.00    1.1
2025/01/18 14:41:53.000   43.024899160  -70.730788488   -23.2937   2   6   0.0086   0.0078   0.0151   0.0017   0.0042   0.0080   0.00    1.1
2025/01/18 14:41:54.000   43.024898961  -70.730787381   -23.2902   2   6   0.0086   0.0077   0.0151   0.0014   0.0041   0.0080   0.00    1.1
2025/01/18 14:41:55.000   43.024898834  -70.730787383   -23.2922   2   6   0.0086   0.0077   0.0151   0.0016   0.0042   0.0081   0.00    1.1
2025/01/18 14:41:56.000   43.024898851  -70.730787151   -23.3022   2   6   0.0086   0.0078   0.0151   0.0014   0.0040   0.0080   0.00    1.1
2025/01/18 14:41:57.000   43.024898970  -70.730787343   -23.2962   2   6   0.0086   0.0078   0.0151   0.0013   0.0039   0.0080   0.00    1.1
2025/01/18 14:41:58.000   43.024898785  -70.730786127   -23.2919   2   6   0.0086   0.0078   0.0151   0.0004   0.0043   0.0080   0.00    1.1
2025/01/18 14:41:59.000   43.024898275  -70.730785219   -23.2944   2   6   0.0086   0.0078   0.0151   0.0012   0.0039   0.0080   0.00    1.1
2025/01/18 14:42:00.000   43.024899336  -70.730785834   -23.2931   2   6   0.0086   0.0077   0.0151   0.0016   0.0041   0.0080   0.00    1.1
2025/01/18 14:42:01.000   43.024898792  -70.730778980   -23.1632   2   6   0.0086   0.0078   0.0151   0.0014   0.0041   0.0080   0.00    1.1
2025/01/18 14:42:02.000   43.024898341  -70.730776191   -23.2783   2   6   0.0086   0.0079   0.0151   0.0013   0.0041   0.0081   0.00    1.1
2025/01/18 14:42:03.000   43.024899692  -70.730777742   -23.2383   2   6   0.0086   0.0077   0.0151   0.0021   0.0039   0.0080   0.00    1.1
2025/01/18 14:42:04.000   43.024899763  -70.730779064   -23.1979   2   6   0.0086   0.0078   0.0151   0.0014   0.0041   0.0081   0.00    1.1
2025/01/18 14:42:05.000   43.024899809  -70.730779813   -23.2140   2   6   0.0086   0.0079   0.0151   0.0016   0.0039   0.0080   0.00    1.1
2025/01/18 14:42:06.000   43.024898850  -70.730779586   -23.2424   2   6   0.0086   0.0079   0.0151   0.0013   0.0043   0.0080   0.00    1.1
2025/01/18 14:42:07.000   43.024898055  -70.730780321   -23.1850   2   6   0.0086   0.0078   0.0151   0.0017   0.0040   0.0080   0.00    1.1
2025/01/18 14:42:08.000   43.024892822  -70.730781519   -23.1260   2   6   0.0086   0.0078   0.0151   0.0008   0.0042   0.0080   0.00    1.1
2025/01/18 14:42:09.000   43.024890500  -70.730779175   -23.1732   2   6   0.0086   0.0080   0.0151   0.0017   0.0041   0.0081   0.00    1.1
2025/01/18 14:42:10.000   43.024889912  -70.730776200   -23.2335   2   6   0.0086   0.0077   0.0151   0.0015   0.0040   0.0081   0.00    1.1
2025/01/18 14:42:11.000   43.024889837  -70.730776111   -23.2410   2   6   0.0086   0.0078   0.0151   0.0015   0.0041   0.0081   0.00    1.1
2025/01/18 14:42:12.000   43.024889311  -70.730775689   -23.2340   2   6   0.0086   0.0078   0.0151   0.0017   0.0041   0.0080   0.00    1.1
2025/01/18 14:42:13.000   43.024888050  -70.730772406   -23.2011   2   6   0.0086   0.0077   0.0151   0.0016   0.0040   0.0080   0.00    1.1
2025/01/18 14:42:14.000   43.024886372  -70.730768804   -23.1996   2   6   0.0085   0.0076   0.0151   0.0016   0.0041   0.0080   0.00    1.1
2025/01/18 14:42:15.000   43.024885368  -70.730767620   -23.2088   2   6   0.0086   0.0077   0.0151   0.0020   0.0039   0.0081   0.00    1.1
2025/01/18 14:42:16.000   43.024882291  -70.730759997   -23.2334   2   6   0.0086   0.0076   0.0151   0.0014   0.0040   0.0080   0.00    1.1
2025/01/18 14:42:17.000   43.024877903  -70.730750273   -23.2601   2   6   0.0086   0.0078   0.0151   0.0014   0.0041   0.0080   0.00    1.1
2025/01/18 14:42:18.000   43.024873645  -70.730739661   -23.3068   2   6   0.0086   0.0078   0.0151   0.0020   0.0041   0.0081   0.00    1.1
2025/01/18 14:42:19.000   43.024869945  -70.730729739   -23.3093   2   6   0.0086   0.0079   0.0151   0.0016   0.0039   0.0080   0.00    1.1
2025/01/18 14:42:20.000   43.024866239  -70.730720478   -23.3838   2   7   0.0086   0.0078   0.0151   0.0013   0.0042   0.0080   0.00    1.0
2025/01/18 14:42:21.000   43.024862650  -70.730710790   -23.4207   2   7   0.0077   0.0077   0.0120  -0.0023  -0.0007   0.0054   0.00    1.0
2025/01/18 14:42:22.000   43.024858437  -70.730701143   -23.5076   2   7   0.0077   0.0075   0.0120  -0.0023  -0.0017   0.0054   0.00    1.0
2025/01/18 14:42:23.000   43.024854529  -70.730690020   -23.5676   2   7   0.0077   0.0075   0.0120  -0.0023  -0.0009   0.0053   0.00    1.0
2025/01/18 14:42:24.000   43.024849904  -70.730678978   -23.6705   2   7   0.0076   0.0074   0.0120  -0.0025  -0.0014   0.0053   0.00    1.0
2025/01/18 14:42:25.000   43.024843905  -70.730670341   -23.7380   2   7   0.0076   0.0075   0.0120  -0.0022  -0.0014   0.0054   0.00    1.0
2025/01/18 14:42:26.000   43.024839188  -70.730664120   -23.7991   2   7   0.0077   0.0077   0.0120  -0.0021  -0.0011   0.0054   0.00    1.0
2025/01/18 14:42:27.000   43.024835816  -70.730656997   -23.8607   2   7   0.0076   0.0075   0.0120  -0.0024  -0.0007   0.0054   0.00    1.0
2025/01/18 14:42:28.000   43.024833778  -70.730648131   -23.9261   2   7   0.0077   0.0074   0.0120  -0.0026  -0.0015   0.0053   0.00    1.0
2025/01/18 14:42:29.000   43.024830106  -70.730639374   -23.9614   2   7   0.0075   0.0073   0.0119  -0.0020  -0.0019   0.0054   0.00    1.0
2025/01/18 14:42:30.000   43.024827219  -70.730629999   -24.0243   2   7   0.0076   0.0075   0.0119  -0.0023  -0.0009   0.0054   0.00    1.0
2025/01/18 14:42:31.000   43.024824419  -70.730619940   -24.0820   2   7   0.0076   0.0075   0.0120  -0.0022  -0.0010   0.0053   0.00    1.0
2025/01/18 14:42:32.000   43.024821105  -70.730609989   -24.1262   2   7   0.0076   0.0074   0.0119  -0.0025  -0.0011   0.0054   0.00    1.0
2025/01/18 14:42:33.000   43.024817034  -70.730600713   -24.2012   2   7   0.0076   0.0074   0.0120  -0.0023  -0.0014   0.0054   0.00    1.0
2025/01/18 14:42:34.000   43.024813589  -70.730590397   -24.2681   2   7   0.0076   0.0074   0.0120  -0.0019  -0.0016   0.0054   0.00    1.0
2025/01/18 14:42:35.000   43.024808959  -70.730580132   -24.3273   2   7   0.0076   0.0077   0.0120  -0.0021  -0.0010   0.0053   0.00    1.0
2025/01/18 14:42:36.000   43.024806019  -70.730569968   -24.4066   2   7   0.0076   0.0075   0.0119  -0.0025  -0.0015   0.0053   0.00    1.0
2025/01/18 14:42:37.000   43.024803362  -70.730560133   -24.5047   2   7   0.0076   0.0074   0.0120  -0.0021  -0.0016   0.0053   0.00    1.0
2025/01/18 14:42:38.000   43.024801720  -70.730551331   -24.6289   2   7   0.0077   0.0074   0.0120  -0.0026  -0.0013   0.0053   0.00    1.0
2025/01/18 14:42:39.000   43.024800319  -70.730545963   -24.7186   2   7   0.0076   0.0075   0.0120  -0.0026  -0.0009   0.0053   0.00    1.0
2025/01/18 14:42:40.000   43.024798928  -70.730534747   -24.8045   2   7   0.0076   0.0075   0.0120  -0.0024  -0.0020   0.0053   0.00    1.0
2025/01/18 14:42:41.000   43.024797345  -70.730525341   -24.8708   2   7   0.0076   0.0076   0.0119  -0.0023  -0.0012   0.0053   0.00    1.0
2025/01/18 14:42:42.000   43.024795009  -70.730516949   -24.9408   2   7   0.0077   0.0077   0.0120  -0.0022  -0.0002   0.0053   0.00    1.1
2025/01/18 14:42:43.000   43.024791736  -70.730508626   -25.0235   2   7   0.0075   0.0074   0.0119  -0.0020  -0.0015   0.0054   0.00    1.1
2025/01/18 14:42:44.000   43.024789788  -70.730501902   -25.0877   2   7   0.0076   0.0075   0.0119  -0.0019  -0.0016   0.0053   0.00    1.1
2025/01/18 14:42:45.000   43.024789833  -70.730500211   -25.1238   2   7   0.0076   0.0076   0.0120  -0.0022  -0.0013   0.0053   0.00    1.1
2025/01/18 14:42:46.000   43.024789592  -70.730499517   -25.1391   2   7   0.0076   0.0074   0.0120  -0.0024  -0.0006   0.0053   0.00    1.1
2025/01/18 14:42:47.000   43.024789791  -70.730499188   -25.1379   2   7   0.0076   0.0073   0.0120  -0.0018  -0.0015   0.0054   0.00    1.1
2025/01/18 14:42:48.000   43.024790410  -70.730500075   -25.1190   2   7   0.0076   0.0074   0.0119  -0.0024  -0.0017   0.0052   0.00    1.1
2025/01/18 14:42:49.000   43.024790587  -70.730500246   -25.1300   2   7   0.0075   0.0074   0.0119  -0.0026  -0.0020   0.0053   0.00    1.1
2025/01/18 14:42:50.000   43.024790692  -70.730500007   -25.1284   2   7   0.0077   0.0075   0.0120  -0.0022  -0.0017   0.0053   0.00    1.1
2025/01/18 14:42:51.000   43.024790698  -70.730500159   -25.1255   2   7   0.0076   0.0074   0.0119  -0.0025  -0.0015   0.0053   0.00    1.1
2025/01/18 14:42:52.000   43.024788740  -70.730497133   -25.1447   2   7   0.0076   0.0074   0.0120  -0.0023  -0.0013   0.0052   0.00    1.1
2025/01/18 14:42:53.000   43.024785779  -70.730493844   -25.1708   2   7   0.0077   0.0075   0.0119  -0.0025  -0.0013   0.0052   0.00    1.1
2025/01/18 14:42:54.000   43.024783029  -70.730485959   -25.2054   2   7   0.0077   0.0074   0.0119  -0.0029  -0.0017   0.0052   0.00    1.1
2025/01/18 14:42:55.000   43.024778709  -70.730475099   -25.3270   2   7   0.0075   0.0074   0.0119  -0.0021  -0.0015   0.0053   0.00    1.1
2025/01/18 14:42:56.000   43.024773849  -70.730465174   -25.3964   2   7   0.0075   0.0072   0.0119  -0.0025  -0.0017   0.0053   0.00    1.1
2025/01/18 14:42:57.000   43.024768642  -70.730456328   -25.5117   2   7   0.0076   0.0074   0.0120  -0.0025  -0.0014   0.0052   0.00    1.1
2025/01/18 14:42:58.000   43.024763166  -70.730447418   -25.6011   2   7   0.0076   0.0074   0.0119  -0.0017  -0.0015   0.0053   0.00    1.1
2025/01/18 14:42:59.000   43.024759150  -70.730438260   -25.6962   2   7   0.0076   0.0073   0.0119  -0.0022  -0.0016   0.0052   0.00    1.1
2025/01/18 14:43:00.000   43.024754961  -70.730429588   -25.7777   2   7   0.0075   0.0073   0.0119  -0.0024  -0.0020   0.0052   0.00    1.1
2025/01/18 14:43:01.000   43.024750575  -70.730418851   -25.8289   2   7   0.0076   0.0074   0.0119  -0.0023  -0.0015   0.0053   0.00    1.1
2025/01/18 14:43:02.000   43.024746521  -70.730407738   -25.7973   2   7   0.0076   0.0075   0.0119  -0.0026  -0.0015   0.0051   0.00    1.1
2025/01/18 14:43:03.000   43.024742386  -70.730396273   -25.7627   2   7   0.0076   0.0075   0.0119  -0.0022  -0.0008   0.0053   0.00    1.1
2025/01/18 14:43:04.000   43.024738293  -70.730385403   -25.7351   2   7   0.0076   0.0076   0.0119  -0.0024  -0.0012   0.0052   0.00    1.1
2025/01/18 14:43:05.000   43.024733493  -70.730374784   -25.7176   2   7   0.0075   0.0075   0.0119  -0.0019  -0.0010   0.0053   0.00    1.1
2025/01/18 14:43:06.000   43.024728029  -70.730362791   -25.7351   2   7   0.0075   0.0075   0.0119  -0.0021  -0.0012   0.0053   0.00    1.1
2025/01/18 14:43:07.000   43.024722052  -70.730350778   -25.7264   2   7   0.0076   0.0075   0.0119  -0.0024  -0.0013   0.0052   0.00    1.1
2025/01/18 14:43:08.000   43.024716594  -70.730338850   -25.7139   2   7   0.0075   0.0073   0.0119  -0.0021  -0.0016   0.0053   0.00    1.1
2025/01/18 14:43:09.000   43.024711616  -70.730328324   -25.7277   2   7   0.0077   0.0076   0.0119  -0.0018   0.0002   0.0053   0.00    1.1
2025/01/18 14:43:10.000   43.024706605  -70.730317457   -25.7506   2   7   0.0076   0.0076   0.0119  -0.0026  -0.0004   0.0052   0.00    1.2
2025/01/18 14:43:11.000   43.024702563  -70.730305365   -25.8121   2   7   0.0075   0.0073   0.0118  -0.0022  -0.0013   0.0053   0.00    1.2
2025/01/18 14:43:12.000   43.024699533  -70.730295242   -25.8315   2   7   0.0076   0.0074   0.0119  -0.0024  -0.0012   0.0052   0.00    1.2
2025/01/18 14:43:13.000   43.024696119  -70.730285356   -25.8421   2   7   0.0077   0.0075   0.0119  -0.0025  -0.0006   0.0052   0.00    1.2
2025/01/18 14:43:14.000   43.024694022  -70.730280877   -25.8191   2   7   0.0075   0.0072   0.0119  -0.0024  -0.0017   0.0051   0.00    1.2
2025/01/18 14:43:15.000   43.024691403  -70.730277645   -25.8414   2   7   0.0075   0.0074   0.0118  -0.0019  -0.0014   0.0053   0.00    1.2
2025/01/18 14:43:16.000   43.024689907  -70.730271911   -25.8532   2   7   0.0076   0.0076   0.0119  -0.0018  -0.0014   0.0052   0.00    1.2
2025/01/18 14:43:17.000   43.024688710  -70.730265270   -25.8485   2   7   0.0077   0.0075   0.0118  -0.0024  -0.0017   0.0051   0.00    1.2
2025/01/18 14:43:18.000   43.024685943  -70.730257362   -25.8707   2   7   0.0077   0.0076   0.0119  -0.0024  -0.0010   0.0051   0.00    1.2
2025/01/18 14:43:19.000   43.024682115  -70.730247970   -25.9089   2   7   0.0076   0.0075   0.0119  -0.0023  -0.0007   0.0052   0.00    1.2
2025/01/18 14:43:20.000   43.024677398  -70.730239039   -25.9139   2   7   0.0075   0.0074   0.0119  -0.0020  -0.0013   0.0052   0.00    1.2
2025/01/18 14:43:21.000   43.024672940  -70.730229902   -25.9168   2   7   0.0076   0.0075   0.0119  -0.0023  -0.0007   0.0052   0.00    1.2
2025/01/18 14:43:22.000   43.024669590  -70.730219014   -25.9511   2   7   0.0075   0.0074   0.0119  -0.0021  -0.0016   0.0052   0.00    1.2
2025/01/18 14:43:23.000   43.024666099  -70.730207128   -25.9917   2   7   0.0075   0.0075   0.0119  -0.0021   0.0007   0.0053   0.00    1.2
2025/01/18 14:43:24.000   43.024661705  -70.730195147   -26.0250   2   7   0.0075   0.0074   0.0118  -0.0024  -0.0015   0.0051   0.00    1.2
2025/01/18 14:43:25.000   43.024655779  -70.730184446   -26.0563   2   7   0.0075   0.0074   0.0118  -0.0023  -0.0014   0.0052   0.00    1.2
2025/01/18 14:43:26.000   43.024650396  -70.730172975   -26.0714   2   7   0.0076   0.0075   0.0119  -0.0023  -0.0018   0.0051   0.00    1.2
2025/01/18 14:43:27.000   43.024644433  -70.730162477   -26.0987   2   7   0.0076   0.0074   0.0118  -0.0021  -0.0007   0.0052   0.00    1.2
2025/01/18 14:43:28.000   43.024639739  -70.730150878   -26.1046   2   7   0.0075   0.0072   0.0119  -0.0022  -0.0012   0.0051   0.00    1.2
2025/01/18 14:43:29.000   43.024634928  -70.730140759   -26.1790   2   7   0.0075   0.0074   0.0118  -0.0023  -0.0015   0.0051   0.00    1.2
2025/01/18 14:43:30.000   43.024630468  -70.730130684   -26.1921   2   7   0.0075   0.0074   0.0119  -0.0022  -0.0016   0.0051   0.00    1.2
2025/01/18 14:43:31.000   43.024624454  -70.730119972   -26.2221   2   7   0.0075   0.0074   0.0118  -0.0020  -0.0013   0.0052   0.00    1.1
2025/01/18 14:43:32.000   43.024618648  -70.730109718   -26.2424   2   7   0.0075   0.0075   0.0118  -0.0022  -0.0014   0.0051   0.00    1.1
2025/01/18 14:43:33.000   43.024611846  -70.730099469   -26.2895   2   7   0.0075   0.0074   0.0119  -0.0022  -0.0016   0.0051   0.00    1.1
2025/01/18 14:43:34.000   43.024605811  -70.730091597   -26.2979   2   7   0.0077   0.0076   0.0119  -0.0026  -0.0011   0.0051   0.00    1.1
2025/01/18 14:43:35.000   43.024600913  -70.730082265   -26.3313   2   7   0.0076   0.0075   0.0119  -0.0025  -0.0012   0.0051   0.00    1.1
2025/01/18 14:43:36.000   43.024596640  -70.730072247   -26.3752   2   7   0.0076   0.0075   0.0118  -0.0019  -0.0011   0.0051   0.00    1.1
2025/01/18 14:43:37.000   43.024593980  -70.730061525   -26.3866   2   7   0.0076   0.0077   0.0119  -0.0020   0.0006   0.0051   0.00    1.1
2025/01/18 14:43:38.000   43.024593725  -70.730050945   -26.4512   2   7   0.0075   0.0075   0.0118  -0.0020  -0.0008   0.0051   0.00    1.1
2025/01/18 14:43:39.000   43.024595006  -70.730046827   -26.4753   2   7   0.0076   0.0074   0.0118  -0.0023  -0.0012   0.0051   0.00    1.1
2025/01/18 14:43:40.000   43.024595066  -70.730046517   -26.4862   2   7   0.0076   0.0074   0.0119  -0.0022  -0.0010   0.0051   0.00    1.1
2025/01/18 14:43:41.000   43.024594356  -70.730045091   -26.4628   2   7   0.0075   0.0075   0.0118  -0.0018  -0.0013   0.0051   0.00    1.1
2025/01/18 14:43:42.000   43.024593692  -70.730045007   -26.2113   2   7   0.0075   0.0075   0.0118  -0.0019  -0.0012   0.0051   0.00    1.1
2025/01/18 14:43:43.000   43.024594229  -70.730045031   -26.3240   2   7   0.0076   0.0074   0.0118  -0.0023  -0.0013   0.0051   0.00    1.1
2025/01/18 14:43:44.000   43.024594277  -70.730044266   -26.4733   2   7   0.0075   0.0074   0.0118  -0.0021  -0.0012   0.0051   0.00    1.1
2025/01/18 14:43:45.000   43.024594415  -70.730044592   -26.4761   2   7   0.0074   0.0075   0.0118  -0.0016  -0.0008   0.0052   0.00    1.1
2025/01/18 14:43:46.000   43.024594433  -70.730044390   -26.4756   2   7   0.0075   0.0075   0.0118  -0.0023  -0.0011   0.0051   0.00    1.1
2025/01/18 14:43:47.000   43.024594461  -70.730044418   -26.4844   2   7   0.0075   0.0073   0.0118  -0.0021  -0.0014   0.0051   0.00    1.1
2025/01/18 14:43:48.000   43.024594458  -70.730044381   -26.4785   2   7   0.0075   0.0075   0.0118  -0.0018  -0.0004   0.0051   0.00    1.1
2025/01/18 14:43:49.000   43.024594484  -70.730044344   -26.4779   2   7   0.0075   0.0075   0.0118  -0.0023  -0.0012   0.0051   0.00    1.1
2025/01/18 14:43:50.000   43.024594493  -70.730044325   -26.4764   2   7   0.0075   0.0073   0.0117  -0.0021  -0.0017   0.0050   0.00    1.1
2025/01/18 14:43:51.000   43.024594512  -70.730044292   -26.4796   2   7   0.0074   0.0076   0.0119  -0.0018  -0.0002   0.0051   0.00    1.1
2025/01/18 14:43:52.000   43.024594483  -70.730044328   -26.4790   2   7   0.0074   0.0074   0.0118  -0.0021  -0.0010   0.0051   0.00    1.1
2025/01/18 14:43:53.000   43.024594477  -70.730044373   -26.4772   2   7   0.0075   0.0074   0.0118  -0.0017  -0.0012   0.0051   0.00    1.1
2025/01/18 14:43:54.000   43.024594484  -70.730044503   -26.4759   2   7   0.0074   0.0073   0.0118  -0.0024  -0.0010   0.0051   0.00    1.0
2025/01/18 14:43:55.000   43.024594518  -70.730044439   -26.4747   2   7   0.0074   0.0073   0.0118  -0.0027  -0.0011   0.0050   0.00    1.0
2025/01/18 14:43:56.000   43.024594575  -70.730044496   -26.4749   2   7   0.0074   0.0075   0.0118  -0.0020  -0.0007   0.0051   0.00    1.0
2025/01/18 14:43:57.000   43.024594552  -70.730044302   -26.4745   2   7   0.0075   0.0075   0.0118  -0.0022  -0.0012   0.0050   0.00    1.0
2025/01/18 14:43:58.000   43.024594412  -70.730044083   -26.4750   2   7   0.0075   0.0073   0.0118  -0.0020  -0.0014   0.0050   0.00    1.0
2025/01/18 14:43:59.000   43.024594428  -70.730044261   -26.4754   2   7   0.0074   0.0073   0.0117  -0.0021  -0.0015   0.0050   0.00    1.0
2025/01/18 14:44:00.000   43.024594420  -70.730044214   -26.4695   2   7   0.0074   0.0073   0.0118  -0.0020  -0.0016   0.0050   0.00    1.0
2025/01/18 14:44:01.000   43.024594382  -70.730044164   -26.4757   2   7   0.0075   0.0073   0.0117  -0.0019  -0.0015   0.0050   0.00    1.0
2025/01/18 14:44:02.000   43.024594374  -70.730044138   -26.4758   2   7   0.0075   0.0074   0.0117  -0.0023  -0.0012   0.0050   0.00    1.0
2025/01/18 14:44:03.000   43.024594338  -70.730044170   -26.4736   2   7   0.0075   0.0073   0.0118  -0.0020  -0.0016   0.0050   0.00    1.0
2025/01/18 14:44:04.000   43.024594468  -70.730044292   -26.4687   2   7   0.0074   0.0073   0.0118  -0.0020  -0.0009   0.0050   0.00    1.0
2025/01/18 14:44:05.000   43.024594482  -70.730044430   -26.4700   2   7   0.0075   0.0075   0.0117  -0.0019  -0.0013   0.0050   0.00    1.0
2025/01/18 14:44:06.000   43.024594546  -70.730044472   -26.4718   2   7   0.0074   0.0076   0.0118  -0.0021   0.0003   0.0050   0.00    1.0
2025/01/18 14:44:07.000   43.024594538  -70.730044425   -26.4712   2   7   0.0075   0.0074   0.0118  -0.0021  -0.0008   0.0049   0.00    1.1
2025/01/18 14:44:08.000   43.024594570  -70.730044454   -26.4713   2   7   0.0075   0.0073   0.0117  -0.0021  -0.0012   0.0049   0.00    1.1
2025/01/18 14:44:09.000   43.024594476  -70.730044410   -26.4731   2   7   0.0074   0.0075   0.0117  -0.0019  -0.0009   0.0050   0.00    1.1
2025/01/18 14:44:10.000   43.024594529  -70.730044472   -26.4631   2   7   0.0074   0.0073   0.0117  -0.0021  -0.0014   0.0049   0.00    1.1
2025/01/18 14:44:11.000   43.024594505  -70.730044421   -26.4732   2   7   0.0074   0.0075   0.0118  -0.0018   0.0011   0.0050   0.00    1.1
2025/01/18 14:44:12.000   43.024594528  -70.730044376   -26.4649   2   7   0.0074   0.0073   0.0117  -0.0022  -0.0014   0.0050   0.00    1.1
2025/01/18 14:44:13.000   43.024594503  -70.730044406   -26.4630   2   7   0.0075   0.0075   0.0117  -0.0020  -0.0008   0.0049   0.00    1.1
2025/01/18 14:44:14.000   43.024594517  -70.730044395   -26.4640   2   7   0.0074   0.0074   0.0117  -0.0021  -0.0013   0.0049   0.00    1.1
2025/01/18 14:44:15.000   43.024594545  -70.730044426   -26.4693   2   7   0.0073   0.0075   0.0117  -0.0016  -0.0012   0.0050   0.00    1.1
2025/01/18 14:44:16.000   43.024594444  -70.730044420   -26.4680   2   7   0.0074   0.0075   0.0117  -0.0021  -0.0008   0.0049   0.00    1.1
2025/01/18 14:44:17.000   43.024594489  -70.730044469   -26.4711   2   7   0.0073   0.0075   0.0118  -0.0018  -0.0009   0.0049   0.00    1.1
2025/01/18 14:44:18.000   43.024594474  -70.730044408   -26.4675   2   7   0.0074   0.0074   0.0117  -0.0024  -0.0015   0.0049   0.00    1.1
2025/01/18 14:44:19.000   43.024594480  -70.730044401   -26.4673   2   7   0.0074   0.0074   0.0117  -0.0021  -0.0015   0.0048   0.00    1.1
2025/01/18 14:44:20.000   43.024594487  -70.730044434   -26.4689   2   7   0.0074   0.0073   0.0117  -0.0015  -0.0015   0.0049   0.00    1.1
2025/01/18 14:44:21.000   43.024594533  -70.730044449   -26.4627   2   7   0.0075   0.0076   0.0117  -0.0016   0.0006   0.0050   0.00    1.1
2025/01/18 14:44:22.000   43.024594529  -70.730044472   -26.4688   2   7   0.0073   0.0073   0.0116  -0.0016  -0.0013   0.0049   0.00    1.1
2025/01/18 14:44:23.000   43.024594496  -70.730044477   -26.4604   2   7   0.0074   0.0076   0.0117  -0.0020   0.0003   0.0049   0.00    1.1
2025/01/18 14:44:24.000   43.024594488  -70.730044459   -26.4670   2   7   0.0074   0.0074   0.0117  -0.0020  -0.0009   0.0049   0.00    1.2
2025/01/18 14:44:25.000   43.024594558  -70.730044430   -26.4602   2   7   0.0074   0.0072   0.0116  -0.0019  -0.0015   0.0049   0.00    1.2
2025/01/18 14:44:26.000   43.024594518  -70.730044430   -26.4596   2   7   0.0074   0.0074   0.0117  -0.0022   0.0005   0.0049   0.00    1.2
2025/01/18 14:44:27.000   43.024594505  -70.730044440   -26.4603   2   7   0.0074   0.0074   0.0116  -0.0019  -0.0013   0.0048   0.00    1.2
2025/01/18 14:44:28.000   43.024594475  -70.730044435   -26.4602   2   7   0.0073   0.0073   0.0116  -0.0017  -0.0015   0.0049   0.00    1.2
2025/01/18 14:44:29.000   43.024594479  -70.730044449   -26.4610   2   7   0.0074   0.0074   0.0116  -0.0022  -0.0011   0.0048   0.00    1.2
2025/01/18 14:44:30.000   43.024594494  -70.730044444   -26.4545   2   7   0.0074   0.0072   0.0116  -0.0023  -0.0016   0.0048   0.00    1.2
2025/01/18 14:44:31.000   43.024594531  -70.730044447   -26.4576   2   7   0.0074   0.0074   0.0116  -0.0022  -0.0011   0.0048   0.00    1.2
2025/01/18 14:44:32.000   43.024594514  -70.730044542   -26.4578   2   7   0.0074   0.0074   0.0117  -0.0018   0.0002   0.0049   0.00    1.2
2025/01/18 14:44:33.000   43.024594501  -70.730044537   -26.4534   2   7   0.0073   0.0073   0.0116  -0.0019  -0.0018   0.0048   0.00    1.2
2025/01/18 14:44:34.000   43.024594535  -70.730044513   -26.4546   2   7   0.0073   0.0073   0.0117  -0.0015  -0.0012   0.0049   0.00    1.2
2025/01/18 14:44:35.000   43.024594568  -70.730044512   -26.4458   2   7   0.0074   0.0074   0.0116  -0.0019  -0.0013   0.0048   0.00    1.2
2025/01/18 14:44:36.000   43.024594552  -70.730044517   -26.4581   2   7   0.0074   0.0076   0.0117  -0.0020   0.0003   0.0048   0.00    1.2
2025/01/18 14:44:37.000   43.024594501  -70.730044550   -26.4536   2   7   0.0073   0.0073   0.0116  -0.0020  -0.0007   0.0048   0.00    1.2
2025/01/18 14:44:38.000   43.024594543  -70.730044573   -26.4544   2   7   0.0074   0.0075   0.0117  -0.0018   0.0004   0.0048   0.00    1.2
2025/01/18 14:44:39.000   43.024594533  -70.730044528   -26.4502   2   7   0.0073   0.0074   0.0116  -0.0019  -0.0009   0.0048   0.00    1.2
2025/01/18 14:44:40.000   43.024594557  -70.730044556   -26.4544   2   7   0.0073   0.0074   0.0116  -0.0017  -0.0012   0.0048   0.00    1.2
2025/01/18 14:44:41.000   43.024594508  -70.730044549   -26.4509   2   7   0.0073   0.0075   0.0116  -0.0017  -0.0008   0.0049   0.00    1.2
2025/01/18 14:44:42.000   43.024594484  -70.730044510   -26.4607   2   7   0.0074   0.0075   0.0117  -0.0020   0.0007   0.0048   0.00    1.2
2025/01/18 14:44:43.000   43.024594542  -70.730044569   -26.4498   2   7   0.0073   0.0074   0.0116  -0.0019  -0.0013   0.0048   0.00    1.2
2025/01/18 14:44:44.000   43.024594501  -70.730044527   -26.4519   2   7   0.0073   0.0074   0.0116  -0.0020  -0.0013   0.0047   0.00    1.2
2025/01/18 14:44:45.000   43.024594482  -70.730044544   -26.4456   2   7   0.0073   0.0074   0.0116  -0.0019  -0.0006   0.0048   0.00    1.2
2025/01/18 14:44:46.000   43.024594516  -70.730044602   -26.4458   2   7   0.0072   0.0073   0.0116  -0.0018  -0.0011   0.0048   0.00    1.2
2025/01/18 14:44:47.000   43.024594458  -70.730044576   -26.4482   2   7   0.0073   0.0074   0.0117  -0.0019  -0.0001   0.0047   0.00    1.3
2025/01/18 14:44:48.000   43.024594497  -70.730044558   -26.4464   2   7   0.0072   0.0072   0.0116  -0.0018  -0.0009   0.0048   0.00    1.3
2025/01/18 14:44:49.000   43.024594498  -70.730044554   -26.4484   2   7   0.0073   0.0073   0.0116  -0.0020  -0.0013   0.0047   0.00    1.3
2025/01/18 14:44:50.000   43.024594515  -70.730044601   -26.4480   2   7   0.0072   0.0073   0.0116  -0.0013  -0.0012   0.0048   0.00    1.3
2025/01/18 14:44:51.000   43.024594501  -70.730044571   -26.4437   2   7   0.0073   0.0073   0.0116  -0.0025  -0.0010   0.0046   0.00    1.3
2025/01/18 14:44:52.000   43.024594551  -70.730044611   -26.4405   2   7   0.0073   0.0074   0.0116  -0.0021  -0.0011   0.0047   0.00    1.3
2025/01/18 14:44:53.000   43.024594507  -70.730044608   -26.4507   2   7   0.0074   0.0074   0.0116  -0.0016  -0.0013   0.0047   0.00    1.3
2025/01/18 14:44:54.000   43.024594539  -70.730044566   -26.4407   2   7   0.0073   0.0075   0.0116  -0.0021  -0.0010   0.0046   0.00    1.3
2025/01/18 14:44:55.000   43.024594564  -70.730044608   -26.4407   2   7   0.0072   0.0073   0.0116  -0.0017  -0.0013   0.0047   0.00    1.3
2025/01/18 14:44:56.000   43.024594525  -70.730044568   -26.4436   2   7   0.0073   0.0074   0.0115  -0.0020  -0.0011   0.0046   0.00    1.3
2025/01/18 14:44:57.000   43.024594491  -70.730044588   -26.4420   2   7   0.0073   0.0073   0.0116  -0.0016  -0.0008   0.0047   0.00    1.3
2025/01/18 14:44:58.000   43.024594531  -70.730044594   -26.4368   2   7   0.0073   0.0075   0.0116  -0.0021   0.0005   0.0046   0.00    1.3
2025/01/18 14:44:59.000   43.024594465  -70.730044465   -26.4372   2   7   0.0072   0.0074   0.0116  -0.0020  -0.0011   0.0046   0.00    1.3
2025/01/18 14:45:00.000   43.024594510  -70.730044480   -26.4349   2   7   0.0072   0.0073   0.0115  -0.0015  -0.0005   0.0048   0.00    1.3
2025/01/18 14:45:01.000   43.024594486  -70.730044404   -26.4290   2   7   0.0073   0.0074   0.0115  -0.0021  -0.0008   0.0046   0.00    1.3
2025/01/18 14:45:02.000   43.024594411  -70.730044485   -26.4377   2   7   0.0072   0.0073   0.0116  -0.0017  -0.0007   0.0047   0.00    1.3
2025/01/18 14:45:03.000   43.024594393  -70.730044407   -26.4327   2   7   0.0073   0.0073   0.0115  -0.0021  -0.0015   0.0046   0.00    1.3
2025/01/18 14:45:04.000   43.024594371  -70.730044381   -26.4355   2   7   0.0072   0.0074   0.0115  -0.0022  -0.0007   0.0046   0.00    1.3
2025/01/18 14:45:05.000   43.024594366  -70.730044303   -26.4382   2   7   0.0072   0.0073   0.0115  -0.0020  -0.0014   0.0046   0.00    1.3
2025/01/18 14:45:06.000   43.024594296  -70.730044261   -26.4444   2   7   0.0073   0.0074   0.0115  -0.0019  -0.0009   0.0046   0.00    1.3
2025/01/18 14:45:07.000   43.024594367  -70.730044262   -26.4322   2   7   0.0073   0.0074   0.0116  -0.0019   0.0009   0.0046   0.00    1.3
2025/01/18 14:45:08.000   43.024594333  -70.730044276   -26.4380   2   7   0.0073   0.0074   0.0115  -0.0016  -0.0008   0.0046   0.00    1.3
2025/01/18 14:45:09.000   43.024594374  -70.730044216   -26.4337   2   7   0.0072   0.0073   0.0115  -0.0021  -0.0004   0.0046   0.00    1.3
2025/01/18 14:45:10.000   43.024594322  -70.730044216   -26.4385   2   7   0.0072   0.0074   0.0115  -0.0021   0.0002   0.0046   0.00    1.3
2025/01/18 14:45:11.000   43.024594371  -70.730044262   -26.4422   2   7   0.0071   0.0073   0.0115  -0.0018  -0.0008   0.0046   0.00    1.3
2025/01/18 14:45:12.000   43.024594310  -70.730044249   -26.4317   2   7   0.0071   0.0074   0.0115  -0.0014  -0.0005   0.0047   0.00    1.3
2025/01/18 14:45:13.000   43.024594311  -70.730044247   -26.4370   2   7   0.0073   0.0075   0.0115  -0.0017  -0.0008   0.0046   0.00    1.3
2025/01/18 14:45:14.000   43.024594335  -70.730044237   -26.4295   2   7   0.0072   0.0074   0.0115  -0.0015  -0.0010   0.0046   0.00    1.3
2025/01/18 14:45:15.000   43.024594305  -70.730044189   -26.4319   2   7   0.0072   0.0075   0.0115  -0.0016   0.0005   0.0046   0.00    1.3
2025/01/18 14:45:16.000   43.024594339  -70.730044245   -26.4322   2   7   0.0072   0.0074   0.0115  -0.0019  -0.0007   0.0046   0.00    1.3
2025/01/18 14:45:17.000   43.024594310  -70.730044190   -26.4283   2   7   0.0072   0.0074   0.0115  -0.0019   0.0007   0.0045   0.00    1.3
2025/01/18 14:45:18.000   43.024594335  -70.730044193   -26.4333   2   7   0.0073   0.0074   0.0115  -0.0019   0.0008   0.0045   0.00    1.3
2025/01/18 14:45:19.000   43.024594317  -70.730044194   -26.4368   2   7   0.0072   0.0073   0.0114  -0.0012  -0.0004   0.0046   0.00    1.4
2025/01/18 14:45:20.000   43.024594358  -70.730044181   -26.4285   2   7   0.0072   0.0075   0.0115  -0.0018   0.0007   0.0045   0.00    1.4
2025/01/18 14:45:21.000   43.024594316  -70.730044111   -26.4247   2   7   0.0071   0.0073   0.0114  -0.0019  -0.0014   0.0045   0.00    1.4
2025/01/18 14:45:22.000   43.024594265  -70.730044075   -26.4287   2   7   0.0072   0.0073   0.0114  -0.0017  -0.0010   0.0045   0.00    1.4
2025/01/18 14:45:23.000   43.024594297  -70.730044124   -26.4256   2   7   0.0072   0.0074   0.0114  -0.0018  -0.0006   0.0045   0.00    1.4
2025/01/18 14:45:24.000   43.024594363  -70.730044106   -26.4265   2   7   0.0071   0.0073   0.0115  -0.0012  -0.0006   0.0046   0.00    1.4
2025/01/18 14:45:25.000   43.024594249  -70.730044088   -26.4277   2   7   0.0072   0.0075   0.0115  -0.0017  -0.0001   0.0045   0.00    1.4
2025/01/18 14:45:26.000   43.024594229  -70.730044106   -26.4333   2   7   0.0072   0.0073   0.0114  -0.0017  -0.0009   0.0045   0.00    1.4
2025/01/18 14:45:27.000   43.024594193  -70.730044088   -26.4331   2   7   0.0072   0.0074   0.0114  -0.0019  -0.0012   0.0044   0.00    1.4
2025/01/18 14:45:28.000   43.024594206  -70.730044042   -26.4258   2   7   0.0071   0.0073   0.0114  -0.0017  -0.0010   0.0045   0.00    1.4
2025/01/18 14:45:29.000   43.024594157  -70.730043886   -26.4285   2   7   0.0071   0.0074   0.0114  -0.0018  -0.0008   0.0044   0.00    1.4
2025/01/18 14:45:30.000   43.024594111  -70.730043899   -26.4266   2   7   0.0072   0.0073   0.0114  -0.0018  -0.0010   0.0044   0.00    1.4
2025/01/18 14:45:31.000   43.024594183  -70.730043871   -26.4201   2   7   0.0071   0.0073   0.0114  -0.0019   0.0006   0.0045   0.00    1.4
2025/01/18 14:45:32.000   43.024594177  -70.730043885   -26.4239   2   7   0.0072   0.0075   0.0114  -0.0017   0.0012   0.0044   0.00    1.4
2025/01/18 14:45:33.000   43.024594143  -70.730043907   -26.4259   2   7   0.0071   0.0073   0.0114  -0.0018  -0.0012   0.0045   0.00    1.4
2025/01/18 14:45:34.000   43.024594158  -70.730043936   -26.4242   2   7   0.0072   0.0073   0.0114  -0.0015   0.0009   0.0045   0.00    1.4
2025/01/18 14:45:35.000   43.024594153  -70.730043953   -26.4204   2   7   0.0071   0.0073   0.0114  -0.0016  -0.0013   0.0044   0.00    1.4
2025/01/18 14:45:36.000   43.024594180  -70.730043949   -26.4272   2   7   0.0071   0.0072   0.0114  -0.0015  -0.0013   0.0044   0.00    1.4
2025/01/18 14:45:37.000   43.024594155  -70.730043920   -26.4233   2   7   0.0071   0.0074   0.0114  -0.0018  -0.0005   0.0044   0.00    1.4
2025/01/18 14:45:38.000   43.024594171  -70.730043921   -26.4229   2   7   0.0071   0.0072   0.0113  -0.0017  -0.0014   0.0044   0.00    1.4
2025/01/18 14:45:39.000   43.024594166  -70.730043900   -26.4220   2   7   0.0071   0.0073   0.0114  -0.0019   0.0007   0.0044   0.00    1.4
2025/01/18 14:45:40.000   43.024594175  -70.730043900   -26.4279   2   7   0.0071   0.0073   0.0113  -0.0019  -0.0012   0.0044   0.00    1.4
2025/01/18 14:45:41.000   43.024594152  -70.730044038   -26.4176   2   7   0.0071   0.0074   0.0114  -0.0013   0.0004   0.0045   0.00    1.4
2025/01/18 14:45:42.000   43.024594177  -70.730044024   -26.4186   2   7   0.0071   0.0073   0.0113  -0.0016  -0.0010   0.0044   0.00    1.4
2025/01/18 14:45:43.000   43.024594198  -70.730044088   -26.4174   2   7   0.0071   0.0074   0.0114  -0.0016   0.0010   0.0044   0.00    1.4
2025/01/18 14:45:44.000   43.024594212  -70.730044120   -26.4116   2   7   0.0071   0.0073   0.0113  -0.0016  -0.0003   0.0044   0.00    1.4
2025/01/18 14:45:45.000   43.024594215  -70.730044251   -26.4212   2   7   0.0072   0.0075   0.0114  -0.0009  -0.0004   0.0044   0.00    1.4
2025/01/18 14:45:46.000   43.024594194  -70.730044111   -26.4251   2   7   0.0070   0.0073   0.0114  -0.0016  -0.0001   0.0044   0.00    1.4
2025/01/18 14:45:47.000   43.024594222  -70.730044170   -26.4156   2   7   0.0071   0.0074   0.0113  -0.0008  -0.0002   0.0044   0.00    1.4
2025/01/18 14:45:48.000   43.024594217  -70.730044121   -26.4166   2   7   0.0071   0.0074   0.0113  -0.0014  -0.0008   0.0043   0.00    1.4
2025/01/18 14:45:49.000   43.024594221  -70.730044114   -26.4130   2   7   0.0071   0.0074   0.0113  -0.0016   0.0010   0.0044   0.00    1.4
2025/01/18 14:45:50.000   43.024594175  -70.730044092   -26.4129   2   7   0.0071   0.0073   0.0113  -0.0019   0.0006   0.0043   0.00    1.4
2025/01/18 14:45:51.000   43.024594157  -70.730044121   -26.4174   2   7   0.0071   0.0074   0.0113  -0.0015   0.0011   0.0044   0.00    1.5
2025/01/18 14:45:52.000   43.024594226  -70.730044122   -26.4133   2   7   0.0071   0.0073   0.0113  -0.0018   0.0007   0.0043   0.00    1.5
2025/01/18 14:45:53.000   43.024594170  -70.730044123   -26.4128   2   7   0.0071   0.0074   0.0113  -0.0014   0.0013   0.0043   0.00    1.5
2025/01/18 14:45:54.000   43.024594150  -70.730044177   -26.4124   2   7   0.0071   0.0074   0.0113  -0.0013   0.0009   0.0043   0.00    1.5
2025/01/18 14:45:55.000   43.024594182  -70.730044233   -26.4119   2   7   0.0070   0.0074   0.0113  -0.0018   0.0008   0.0043   0.00    1.5
2025/01/18 14:45:56.000   43.024594195  -70.730044211   -26.4137   2   7   0.0071   0.0073   0.0113  -0.0013  -0.0008   0.0043   0.00    1.5
2025/01/18 14:45:57.000   43.024594175  -70.730044161   -26.4124   2   7   0.0071   0.0073   0.0113  -0.0020  -0.0010   0.0041   0.00    1.5
2025/01/18 14:45:58.000   43.024594180  -70.730044164   -26.4162   2   7   0.0070   0.0073   0.0113  -0.0016   0.0002   0.0042   0.00    1.5
2025/01/18 14:45:59.000   43.024594187  -70.730044177   -26.4117   2   7   0.0070   0.0073   0.0113  -0.0010  -0.0009   0.0043   0.00    1.5
2025/01/18 14:46:00.000   43.024594211  -70.730044159   -26.4176   2   7   0.0070   0.0074   0.0113  -0.0016   0.0009   0.0043   0.00    1.5
2025/01/18 14:46:01.000   43.024594172  -70.730044168   -26.4142   2   7   0.0071   0.0075   0.0113  -0.0015   0.0009   0.0042   0.00    1.5
2025/01/18 14:46:02.000   43.024594172  -70.730044156   -26.4078   2   7   0.0070   0.0073   0.0112  -0.0014  -0.0002   0.0043   0.00    1.5
2025/01/18 14:46:03.000   43.024594228  -70.730044195   -26.4038   2   7   0.0070   0.0072   0.0112  -0.0010  -0.0010   0.0043   0.00    1.5
2025/01/18 14:46:04.000   43.024594157  -70.730044129   -26.4087   2   7   0.0070   0.0071   0.0112  -0.0018  -0.0011   0.0042   0.00    1.5
2025/01/18 14:46:05.000   43.024594172  -70.730044158   -26.4056   2   7   0.0070   0.0072   0.0112  -0.0016  -0.0011   0.0042   0.00    1.5
2025/01/18 14:46:06.000   43.024594169  -70.730044146   -26.4052   2   7   0.0070   0.0074   0.0112  -0.0020  -0.0003   0.0041   0.00    1.5
2025/01/18 14:46:07.000   43.024594195  -70.730044154   -26.4053   2   7   0.0070   0.0074   0.0112  -0.0011  -0.0005   0.0043   0.00    1.5
2025/01/18 14:46:08.000   43.024594305  -70.730044470   -26.4028   2   7   0.0070   0.0073   0.0112  -0.0015  -0.0005   0.0041   0.00    1.5
2025/01/18 14:46:09.000   43.024594174  -70.730044242   -26.4006   2   7   0.0069   0.0072   0.0112  -0.0018  -0.0009   0.0042   0.00    1.5
2025/01/18 14:46:10.000   43.024594165  -70.730044163   -26.4050   2   7   0.0070   0.0072   0.0112  -0.0016  -0.0008   0.0042   0.00    1.5
2025/01/18 14:46:11.000   43.024594220  -70.730044191   -26.4061   2   7   0.0070   0.0073   0.0112  -0.0014   0.0002   0.0042   0.00    1.5
2025/01/18 14:46:12.000   43.024594166  -70.730044152   -26.4069   2   7   0.0070   0.0075   0.0112  -0.0017   0.0011   0.0042   0.00    1.5
2025/01/18 14:46:13.000   43.024594190  -70.730044197   -26.4055   2   7   0.0070   0.0074   0.0112  -0.0011   0.0010   0.0041   0.00    1.5
2025/01/18 14:46:14.000   43.024594173  -70.730044175   -26.3978   2   7   0.0070   0.0074   0.0112  -0.0009   0.0006   0.0042   0.00    1.5
2025/01/18 14:46:15.000   43.024594186  -70.730044164   -26.3994   2   7   0.0070   0.0074   0.0112  -0.0010   0.0011   0.0042   0.00    1.5
2025/01/18 14:46:16.000   43.024594188  -70.730044172   -26.4015   2   7   0.0070   0.0073   0.0112  -0.0013   0.0009   0.0042   0.00    1.5
2025/01/18 14:46:17.000   43.024594207  -70.730044143   -26.3967   2   7   0.0070   0.0075   0.0112  -0.0016   0.0009   0.0041   0.00    1.5
2025/01/18 14:46:18.000   43.024594180  -70.730044142   -26.4000   2   7   0.0070   0.0073   0.0111  -0.0016  -0.0009   0.0041   0.00    1.5
2025/01/18 14:46:19.000   43.024594117  -70.730044001   -26.3967   2   7   0.0070   0.0073   0.0112  -0.0010  -0.0010   0.0042   0.00    1.5
2025/01/18 14:46:20.000   43.024594110  -70.730044055   -26.3990   2   7   0.0069   0.0074   0.0112  -0.0007   0.0007   0.0042   0.00    1.5
2025/01/18 14:46:21.000   43.024594081  -70.730044029   -26.3937   2   7   0.0070   0.0073   0.0112  -0.0014   0.0005   0.0041   0.00    1.5
2025/01/18 14:46:22.000   43.024594150  -70.730044020   -26.3921   2   7   0.0069   0.0073   0.0112  -0.0015   0.0005   0.0041   0.00    1.5
2025/01/18 14:46:23.000   43.024594093  -70.730044022   -26.3951   2   7   0.0069   0.0073   0.0111  -0.0015  -0.0009   0.0041   0.00    1.5
2025/01/18 14:46:24.000   43.024594072  -70.730044079   -26.3995   2   7   0.0070   0.0075   0.0112  -0.0007   0.0004   0.0041   0.00    1.5
2025/01/18 14:46:25.000   43.024594127  -70.730044067   -26.3923   2   7   0.0070   0.0076   0.0111  -0.0009   0.0011   0.0041   0.00    1.5
2025/01/18 14:46:26.000   43.024594149  -70.730044066   -26.3880   2   7   0.0070   0.0072   0.0111  -0.0014   0.0008   0.0041   0.00    1.5
2025/01/18 14:46:27.000   43.024594173  -70.730044017   -26.3855   2   7   0.0069   0.0073   0.0111  -0.0013   0.0008   0.0041   0.00    1.5
2025/01/18 14:46:28.000   43.024594174  -70.730043999   -26.3863   2   7   0.0070   0.0075   0.0111  -0.0014   0.0011   0.0040   0.00    1.5
2025/01/18 14:46:29.000   43.024594144  -70.730043990   -26.3827   2   7   0.0069   0.0071   0.0111  -0.0018  -0.0010   0.0040   0.00    1.5
2025/01/18 14:46:30.000   43.024594155  -70.730043994   -26.3892   2   7   0.0069   0.0073   0.0111  -0.0018   0.0013   0.0041   0.00    1.5
2025/01/18 14:46:31.000   43.024594166  -70.730044006   -26.3828   2   7   0.0069   0.0073   0.0111  -0.0014   0.0011   0.0041   0.00    1.5
2025/01/18 14:46:32.000   43.024594165  -70.730044076   -26.3798   2   7   0.0069   0.0074   0.0111  -0.0010  -0.0009   0.0040   0.00    1.5
2025/01/18 14:46:33.000   43.024594131  -70.730044051   -26.3736   2   7   0.0069   0.0073   0.0111  -0.0012   0.0008   0.0040   0.00    1.5
2025/01/18 14:46:34.000   43.024594190  -70.730044033   -26.3759   2   7   0.0069   0.0072   0.0110  -0.0010  -0.0006   0.0041   0.00    1.5
2025/01/18 14:46:35.000   43.024594167  -70.730044037   -26.3663   2   7   0.0069   0.0072   0.0111  -0.0016  -0.0006   0.0039   0.00    1.5
2025/01/18 14:46:36.000   43.024594135  -70.730044048   -26.3732   2   7   0.0069   0.0073   0.0111  -0.0016  -0.0004   0.0039   0.00    1.5
2025/01/18 14:46:37.000   43.024594181  -70.730044070   -26.3742   2   7   0.0069   0.0073   0.0111  -0.0015   0.0006   0.0040   0.00    1.5
2025/01/18 14:46:38.000   43.024594246  -70.730044216   -26.3772   2   7   0.0068   0.0072   0.0110  -0.0012   0.0006   0.0041   0.00    1.5
2025/01/18 14:46:39.000   43.024594201  -70.730044162   -26.3661   2   7   0.0068   0.0073   0.0111  -0.0013   0.0006   0.0040   0.00    1.5
