% program   : RTKPOST ver.2.4.2
% inp file  : C:\Users\Melissa\Documents\Survey_Data\January_3PS_Exp_2025\Wallis_Sands\20250119\Rover\82761560.o
% inp file  : C:\Users\Melissa\Documents\Survey_Data\January_3PS_Exp_2025\Wallis_Sands\20250119\Base\nhun019\nhun0190.25o
% inp file  : C:\Users\Melissa\Documents\Survey_Data\January_3PS_Exp_2025\Wallis_Sands\20250119\Base\nhun019\nhun0190.25n
% inp file  : C:\Users\Melissa\Documents\Survey_Data\January_3PS_Exp_2025\Wallis_Sands\20250119\Base\nhun019\igr23500.sp3
% obs start : 2025/01/19 14:41:44.0 GPST (week2350  52904.0s)
% obs end   : 2025/01/19 15:14:38.0 GPST (week2350  54878.0s)
% pos mode  : kinematic
% freqs     : L1+L2+L5
% solution  : combined
% elev mask : 15.0 deg
% dynamics  : off
% tidecorr  : off
% ionos opt : broadcast
% tropo opt : saastamoinen
% ephemeris : broadcast
% navi sys  : gps glonass galileo qzss
% amb res   : continuous
% amb glo   : on
% val thres : 3.0
% antenna1  :                       ( 0.0000  0.0000  0.0000)
% antenna2  :                       ( 0.0000  0.0000  0.0000)
% ref pos   : 43.142559483  -70.951909686     7.9230
%
% (lat/lon/height=WGS84/ellipsoidal,Q=1:fix,2:float,3:sbas,4:dgps,5:single,6:ppp,ns=# of satellites)
%  GPST                  latitude(deg) longitude(deg)  height(m)   Q  ns   sdn(m)   sde(m)   sdu(m)  sdne(m)  sdeu(m)  sdun(m) age(s)  ratio
2025/01/19 14:41:44.000   43.024891943  -70.730796705   -23.9458   2   6   0.6152   0.3350   1.0532  -0.0823   0.2646   0.5904   0.00    1.1
2025/01/19 14:41:45.000   43.024892642  -70.730796857   -23.1612   2   6   0.0092   0.0097   0.0169   0.0029   0.0044   0.0083   0.00    1.1
2025/01/19 14:41:46.000   43.024892596  -70.730796852   -23.1596   2   6   0.0091   0.0096   0.0169   0.0027   0.0044   0.0083   0.00    1.0
2025/01/19 14:41:47.000   43.024892677  -70.730796849   -23.1505   2   6   0.0091   0.0095   0.0169   0.0029   0.0046   0.0084   0.00    1.1
2025/01/19 14:41:48.000   43.024892666  -70.730796868   -23.1546   2   6   0.0091   0.0096   0.0169   0.0025   0.0044   0.0083   0.00    1.1
2025/01/19 14:41:49.000   43.024892646  -70.730796848   -23.1566   2   6   0.0091   0.0096   0.0168   0.0027   0.0046   0.0083   0.00    1.1
2025/01/19 14:41:50.000   43.024892629  -70.730796883   -23.1562   2   6   0.0091   0.0095   0.0169   0.0031   0.0042   0.0084   0.00    1.1
2025/01/19 14:41:51.000   43.024892640  -70.730796886   -23.1617   2   6   0.0090   0.0094   0.0168   0.0032   0.0043   0.0084   0.00    1.1
2025/01/19 14:41:52.000   43.024892614  -70.730796897   -23.1655   2   6   0.0091   0.0096   0.0169   0.0029   0.0044   0.0084   0.00    1.1
2025/01/19 14:41:53.000   43.024892652  -70.730796890   -23.1549   2   6   0.0091   0.0096   0.0169   0.0027   0.0044   0.0083   0.00    1.1
2025/01/19 14:41:54.000   43.024892686  -70.730796912   -23.1528   2   6   0.0090   0.0093   0.0169   0.0029   0.0042   0.0084   0.00    1.1
2025/01/19 14:41:55.000   43.024892678  -70.730796917   -23.1578   2   6   0.0092   0.0096   0.0168   0.0030   0.0043   0.0084   0.00    1.1
2025/01/19 14:41:56.000   43.024892700  -70.730796922   -23.1578   2   6   0.0091   0.0095   0.0169   0.0028   0.0045   0.0083   0.00    1.1
2025/01/19 14:41:57.000   43.024892716  -70.730796906   -23.1527   2   6   0.0091   0.0095   0.0169   0.0030   0.0044   0.0084   0.00    1.1
2025/01/19 14:41:58.000   43.024892734  -70.730796929   -23.1519   2   6   0.0091   0.0095   0.0169   0.0031   0.0043   0.0084   0.00    1.1
2025/01/19 14:41:59.000   43.024892682  -70.730796929   -23.1592   2   6   0.0091   0.0095   0.0169   0.0026   0.0046   0.0084   0.00    1.1
2025/01/19 14:42:00.000   43.024892652  -70.730796932   -23.1616   2   6   0.0090   0.0095   0.0169   0.0028   0.0043   0.0084   0.00    1.2
2025/01/19 14:42:01.000   43.024892653  -70.730796930   -23.1591   2   6   0.0091   0.0096   0.0169   0.0029   0.0044   0.0084   0.00    1.2
2025/01/19 14:42:02.000   43.024892708  -70.730796957   -23.1569   2   6   0.0090   0.0094   0.0169   0.0027   0.0044   0.0084   0.00    1.2
2025/01/19 14:42:03.000   43.024892737  -70.730796934   -23.1485   2   6   0.0091   0.0094   0.0168   0.0029   0.0044   0.0084   0.00    1.2
2025/01/19 14:42:04.000   43.024892741  -70.730796978   -23.1537   2   6   0.0091   0.0095   0.0169   0.0026   0.0045   0.0084   0.00    1.2
2025/01/19 14:42:05.000   43.024892692  -70.730796942   -23.1563   2   6   0.0091   0.0096   0.0169   0.0029   0.0044   0.0084   0.00    1.2
2025/01/19 14:42:06.000   43.024892722  -70.730796972   -23.1496   2   6   0.0091   0.0096   0.0169   0.0029   0.0046   0.0084   0.00    1.2
2025/01/19 14:42:07.000   43.024892702  -70.730796995   -23.1569   2   6   0.0091   0.0093   0.0168   0.0033   0.0043   0.0084   0.00    1.3
2025/01/19 14:42:08.000   43.024892742  -70.730797009   -23.1511   2   6   0.0092   0.0096   0.0169   0.0029   0.0044   0.0083   0.00    1.3
2025/01/19 14:42:09.000   43.024892737  -70.730796966   -23.1524   2   6   0.0091   0.0094   0.0168   0.0031   0.0045   0.0084   0.00    1.3
2025/01/19 14:42:10.000   43.024892727  -70.730797004   -23.1456   2   6   0.0090   0.0093   0.0168   0.0030   0.0044   0.0084   0.00    1.3
2025/01/19 14:42:11.000   43.024892759  -70.730797019   -23.1505   2   6   0.0091   0.0095   0.0168   0.0030   0.0045   0.0084   0.00    1.3
2025/01/19 14:42:12.000   43.024892754  -70.730797009   -23.1521   2   6   0.0091   0.0095   0.0169   0.0031   0.0044   0.0084   0.00    1.4
2025/01/19 14:42:13.000   43.024892747  -70.730797008   -23.1530   2   6   0.0092   0.0096   0.0169   0.0029   0.0045   0.0084   0.00    1.4
2025/01/19 14:42:14.000   43.024892762  -70.730797039   -23.1585   2   6   0.0092   0.0096   0.0169   0.0031   0.0044   0.0084   0.00    1.4
2025/01/19 14:42:15.000   43.024892763  -70.730796988   -23.1457   2   6   0.0091   0.0093   0.0169   0.0030   0.0043   0.0084   0.00    1.4
2025/01/19 14:42:16.000   43.024892718  -70.730797032   -23.1629   2   6   0.0092   0.0095   0.0169   0.0031   0.0046   0.0084   0.00    1.5
2025/01/19 14:42:17.000   43.024892712  -70.730797024   -23.1593   2   6   0.0091   0.0095   0.0169   0.0030   0.0045   0.0083   0.00    1.5
2025/01/19 14:42:18.000   43.024892722  -70.730797070   -23.1626   2   6   0.0092   0.0095   0.0169   0.0031   0.0044   0.0084   0.00    1.5
2025/01/19 14:42:19.000   43.024892782  -70.730797064   -23.1641   2   6   0.0091   0.0093   0.0169   0.0032   0.0042   0.0084   0.00    1.5
2025/01/19 14:42:20.000   43.024892727  -70.730797011   -23.1639   2   7   0.0091   0.0095   0.0169   0.0030   0.0045   0.0084   0.00    1.1
2025/01/19 14:42:21.000   43.024892834  -70.730797020   -23.1394   2   7   0.0080   0.0093   0.0136  -0.0017  -0.0014   0.0050   0.00    1.1
2025/01/19 14:42:22.000   43.024892839  -70.730797025   -23.1328   2   7   0.0079   0.0093   0.0135  -0.0012  -0.0018   0.0049   0.00    1.2
2025/01/19 14:42:23.000   43.024892851  -70.730797045   -23.1383   2   7   0.0079   0.0091   0.0136  -0.0017  -0.0013   0.0050   0.00    1.2
2025/01/19 14:42:24.000   43.024892880  -70.730797025   -23.1352   2   7   0.0079   0.0090   0.0135  -0.0013  -0.0023   0.0049   0.00    1.3
2025/01/19 14:42:25.000   43.024892879  -70.730796989   -23.1261   2   7   0.0079   0.0092   0.0136  -0.0011  -0.0014   0.0050   0.00    1.3
2025/01/19 14:42:26.000   43.024892880  -70.730797055   -23.1294   2   7   0.0080   0.0094   0.0137   0.0008  -0.0002   0.0050   0.00    1.3
2025/01/19 14:42:27.000   43.024892896  -70.730797047   -23.1300   2   7   0.0078   0.0091   0.0136  -0.0018  -0.0014   0.0049   0.00    1.4
2025/01/19 14:42:28.000   43.024892894  -70.730797028   -23.1247   2   7   0.0080   0.0093   0.0136  -0.0012  -0.0013   0.0049   0.00    1.3
2025/01/19 14:42:29.000   43.024892897  -70.730797020   -23.1277   2   7   0.0079   0.0094   0.0136  -0.0010  -0.0011   0.0050   0.00    1.3
2025/01/19 14:42:30.000   43.024892923  -70.730797059   -23.1253   2   7   0.0078   0.0092   0.0136  -0.0008  -0.0014   0.0050   0.00    1.3
2025/01/19 14:42:31.000   43.024892935  -70.730797090   -23.1297   2   7   0.0079   0.0091   0.0136  -0.0016  -0.0015   0.0049   0.00    1.2
2025/01/19 14:42:32.000   43.024892903  -70.730797059   -23.1190   2   7   0.0079   0.0092   0.0136  -0.0014  -0.0014   0.0049   0.00    1.2
2025/01/19 14:42:33.000   43.024892949  -70.730797087   -23.1199   2   7   0.0079   0.0093   0.0136  -0.0013  -0.0015   0.0049   0.00    1.2
2025/01/19 14:42:34.000   43.024892944  -70.730797071   -23.1156   2   7   0.0079   0.0092   0.0136  -0.0007  -0.0020   0.0050   0.00    1.2
2025/01/19 14:42:35.000   43.024892935  -70.730797073   -23.1210   2   7   0.0079   0.0092   0.0136  -0.0010  -0.0016   0.0049   0.00    1.2
2025/01/19 14:42:36.000   43.024892979  -70.730797077   -23.1124   2   7   0.0080   0.0090   0.0136  -0.0022  -0.0020   0.0049   0.00    1.1
2025/01/19 14:42:37.000   43.024892959  -70.730797110   -23.1138   2   7   0.0079   0.0091   0.0136  -0.0013  -0.0016   0.0050   0.00    1.1
2025/01/19 14:42:38.000   43.024892952  -70.730797073   -23.1279   2   7   0.0079   0.0093   0.0136  -0.0012  -0.0013   0.0050   0.00    1.1
2025/01/19 14:42:39.000   43.024892992  -70.730797079   -23.1208   2   7   0.0080   0.0092   0.0136   0.0004  -0.0013   0.0049   0.00    1.1
2025/01/19 14:42:40.000   43.024893029  -70.730797135   -23.1172   2   7   0.0078   0.0090   0.0136  -0.0016  -0.0019   0.0049   0.00    1.1
2025/01/19 14:42:41.000   43.024892921  -70.730797106   -23.1244   2   7   0.0079   0.0093   0.0136  -0.0014  -0.0013   0.0049   0.00    1.1
2025/01/19 14:42:42.000   43.024892996  -70.730797095   -23.1105   2   7   0.0079   0.0092   0.0136  -0.0016  -0.0015   0.0049   0.00    1.0
2025/01/19 14:42:43.000   43.024893014  -70.730797165   -23.1161   2   7   0.0080   0.0092   0.0135  -0.0016  -0.0015   0.0049   0.00    1.0
2025/01/19 14:42:44.000   43.024892952  -70.730797146   -23.1210   2   7   0.0079   0.0092   0.0136  -0.0011  -0.0011   0.0050   0.00    1.0
2025/01/19 14:42:45.000   43.024892983  -70.730797126   -23.1196   2   7   0.0079   0.0091   0.0135  -0.0022  -0.0018   0.0047   0.00    1.0
2025/01/19 14:42:46.000   43.024893094  -70.730797163   -23.1093   2   7   0.0079   0.0092   0.0136  -0.0004  -0.0021   0.0049   0.00    1.0
2025/01/19 14:42:47.000   43.024893009  -70.730797151   -23.1072   2   7   0.0078   0.0093   0.0136  -0.0011   0.0006   0.0049   0.00    1.0
2025/01/19 14:42:48.000   43.024893063  -70.730797195   -23.1113   2   7   0.0079   0.0092   0.0136  -0.0014  -0.0015   0.0049   0.00    1.0
2025/01/19 14:42:49.000   43.024893058  -70.730797196   -23.1135   2   7   0.0079   0.0092   0.0136  -0.0016  -0.0011   0.0049   0.00    1.0
2025/01/19 14:42:50.000   43.024892992  -70.730797184   -23.1118   2   7   0.0078   0.0090   0.0135  -0.0008  -0.0015   0.0050   0.00    1.0
2025/01/19 14:42:51.000   43.024893051  -70.730797189   -23.1106   2   7   0.0078   0.0091   0.0135  -0.0010  -0.0019   0.0050   0.00    1.0
2025/01/19 14:42:52.000   43.024893070  -70.730797201   -23.1092   2   7   0.0079   0.0092   0.0135  -0.0006  -0.0016   0.0050   0.00    1.1
2025/01/19 14:42:53.000   43.024893101  -70.730797218   -23.1069   2   7   0.0080   0.0094   0.0136  -0.0020  -0.0011   0.0048   0.00    1.1
2025/01/19 14:42:54.000   43.024893084  -70.730797214   -23.1082   2   7   0.0079   0.0092   0.0136  -0.0011  -0.0014   0.0050   0.00    1.1
2025/01/19 14:42:55.000   43.024893029  -70.730797255   -23.1144   2   7   0.0079   0.0093   0.0136  -0.0017  -0.0015   0.0049   0.00    1.1
2025/01/19 14:42:56.000   43.024893047  -70.730797275   -23.1132   2   7   0.0079   0.0092   0.0136  -0.0014  -0.0005   0.0049   0.00    1.1
2025/01/19 14:42:57.000   43.024893050  -70.730797268   -23.1083   2   7   0.0079   0.0092   0.0136  -0.0010  -0.0015   0.0049   0.00    1.1
2025/01/19 14:42:58.000   43.024893075  -70.730797287   -23.1091   2   7   0.0079   0.0092   0.0135  -0.0003  -0.0015   0.0049   0.00    1.1
2025/01/19 14:42:59.000   43.024893095  -70.730797259   -23.1018   2   7   0.0079   0.0092   0.0135  -0.0016  -0.0008   0.0048   0.00    1.1
2025/01/19 14:43:00.000   43.024893069  -70.730797303   -23.1084   2   7   0.0079   0.0092   0.0136   0.0007  -0.0014   0.0049   0.00    1.1
2025/01/19 14:43:01.000   43.024893045  -70.730797317   -23.1188   2   7   0.0079   0.0093   0.0136  -0.0010  -0.0014   0.0049   0.00    1.1
2025/01/19 14:43:02.000   43.024893080  -70.730797308   -23.1150   2   7   0.0080   0.0093   0.0135  -0.0014  -0.0016   0.0049   0.00    1.1
2025/01/19 14:43:03.000   43.024893106  -70.730797299   -23.1013   2   7   0.0079   0.0093   0.0136  -0.0012  -0.0012   0.0049   0.00    1.1
2025/01/19 14:43:04.000   43.024893140  -70.730797306   -23.1016   2   7   0.0078   0.0090   0.0135  -0.0012  -0.0019   0.0049   0.00    1.1
2025/01/19 14:43:05.000   43.024893092  -70.730797376   -23.1107   2   7   0.0079   0.0092   0.0136  -0.0010  -0.0011   0.0049   0.00    1.1
2025/01/19 14:43:06.000   43.024893072  -70.730797370   -23.1140   2   7   0.0080   0.0093   0.0136  -0.0018  -0.0014   0.0048   0.00    1.1
2025/01/19 14:43:07.000   43.024893054  -70.730797370   -23.1171   2   7   0.0079   0.0091   0.0135  -0.0016  -0.0017   0.0048   0.00    1.1
2025/01/19 14:43:08.000   43.024893054  -70.730797404   -23.1255   2   7   0.0079   0.0092   0.0135  -0.0009  -0.0012   0.0050   0.00    1.1
2025/01/19 14:43:09.000   43.024893124  -70.730797385   -23.1117   2   7   0.0079   0.0092   0.0135  -0.0015  -0.0011   0.0049   0.00    1.1
2025/01/19 14:43:10.000   43.024893121  -70.730797413   -23.1080   2   7   0.0079   0.0092   0.0135  -0.0012  -0.0010   0.0048   0.00    1.1
2025/01/19 14:43:11.000   43.024893130  -70.730797409   -23.1130   2   7   0.0079   0.0092   0.0136  -0.0008  -0.0012   0.0049   0.00    1.1
2025/01/19 14:43:12.000   43.024893111  -70.730797407   -23.1090   2   7   0.0079   0.0092   0.0135  -0.0014  -0.0014   0.0049   0.00    1.1
2025/01/19 14:43:13.000   43.024893167  -70.730797412   -23.1041   2   7   0.0078   0.0092   0.0135  -0.0008  -0.0012   0.0048   0.00    1.1
2025/01/19 14:43:14.000   43.024893161  -70.730797417   -23.1036   2   7   0.0079   0.0092   0.0135  -0.0010  -0.0015   0.0048   0.00    1.1
2025/01/19 14:43:15.000   43.024893172  -70.730797426   -23.1024   2   7   0.0079   0.0092   0.0135   0.0002  -0.0012   0.0049   0.00    1.1
2025/01/19 14:43:16.000   43.024893144  -70.730797439   -23.1065   2   7   0.0078   0.0090   0.0135  -0.0009  -0.0017   0.0049   0.00    1.1
2025/01/19 14:43:17.000   43.024893187  -70.730797455   -23.0977   2   7   0.0079   0.0093   0.0135  -0.0009  -0.0013   0.0048   0.00    1.1
2025/01/19 14:43:18.000   43.024893153  -70.730797447   -23.1120   2   7   0.0079   0.0092   0.0135  -0.0017  -0.0014   0.0048   0.00    1.1
2025/01/19 14:43:19.000   43.024893198  -70.730797482   -23.1077   2   7   0.0078   0.0091   0.0135  -0.0004  -0.0013   0.0049   0.00    1.1
2025/01/19 14:43:20.000   43.024893214  -70.730797498   -23.1026   2   7   0.0080   0.0092   0.0135  -0.0017  -0.0013   0.0047   0.00    1.1
2025/01/19 14:43:21.000   43.024893181  -70.730797487   -23.1125   2   7   0.0079   0.0092   0.0135  -0.0011  -0.0011   0.0048   0.00    1.1
2025/01/19 14:43:22.000   43.024893182  -70.730797504   -23.1044   2   7   0.0079   0.0091   0.0135  -0.0017  -0.0017   0.0048   0.00    1.1
2025/01/19 14:43:23.000   43.024893158  -70.730797476   -23.1072   2   7   0.0079   0.0091   0.0135  -0.0014  -0.0016   0.0048   0.00    1.1
2025/01/19 14:43:24.000   43.024893179  -70.730797503   -23.1065   2   7   0.0080   0.0093   0.0136  -0.0010  -0.0008   0.0048   0.00    1.1
2025/01/19 14:43:25.000   43.024893151  -70.730797514   -23.1072   2   7   0.0079   0.0093   0.0135   0.0008  -0.0008   0.0049   0.00    1.1
2025/01/19 14:43:26.000   43.024893191  -70.730797536   -23.1041   2   7   0.0078   0.0092   0.0135   0.0006  -0.0012   0.0049   0.00    1.1
2025/01/19 14:43:27.000   43.024893163  -70.730797545   -23.1094   2   7   0.0079   0.0093   0.0135  -0.0011  -0.0008   0.0048   0.00    1.1
2025/01/19 14:43:28.000   43.024893198  -70.730797492   -23.1059   2   7   0.0078   0.0091   0.0135  -0.0016  -0.0018   0.0047   0.00    1.1
2025/01/19 14:43:29.000   43.024893275  -70.730797560   -23.0986   2   7   0.0079   0.0091   0.0135  -0.0016  -0.0013   0.0048   0.00    1.1
2025/01/19 14:43:30.000   43.024893189  -70.730797545   -23.0994   2   7   0.0079   0.0093   0.0135  -0.0016  -0.0014   0.0047   0.00    1.1
2025/01/19 14:43:31.000   43.024893211  -70.730797556   -23.0999   2   7   0.0079   0.0091   0.0135  -0.0008  -0.0011   0.0048   0.00    1.1
2025/01/19 14:43:32.000   43.024893212  -70.730797567   -23.0983   2   7   0.0079   0.0093   0.0135   0.0002  -0.0008   0.0048   0.00    1.1
2025/01/19 14:43:33.000   43.024893241  -70.730797566   -23.0962   2   7   0.0079   0.0092   0.0135  -0.0013  -0.0014   0.0048   0.00    1.1
2025/01/19 14:43:34.000   43.024893259  -70.730797539   -23.0992   2   7   0.0078   0.0092   0.0135  -0.0008  -0.0012   0.0048   0.00    1.1
2025/01/19 14:43:35.000   43.024893243  -70.730797550   -23.1025   2   7   0.0078   0.0091   0.0135  -0.0016  -0.0011   0.0048   0.00    1.1
2025/01/19 14:43:36.000   43.024893227  -70.730797596   -23.1049   2   7   0.0079   0.0092   0.0135  -0.0015  -0.0013   0.0048   0.00    1.1
2025/01/19 14:43:37.000   43.024893281  -70.730797591   -23.0874   2   7   0.0080   0.0091   0.0135  -0.0015  -0.0014   0.0047   0.00    1.1
2025/01/19 14:43:38.000   43.024893269  -70.730797614   -23.0988   2   7   0.0079   0.0091   0.0135  -0.0015  -0.0013   0.0047   0.00    1.0
2025/01/19 14:43:39.000   43.024893239  -70.730797590   -23.0890   2   7   0.0079   0.0092   0.0135  -0.0012  -0.0014   0.0047   0.00    1.0
2025/01/19 14:43:40.000   43.024893308  -70.730797636   -23.0869   2   7   0.0079   0.0093   0.0135  -0.0008  -0.0013   0.0048   0.00    1.0
2025/01/19 14:43:41.000   43.024893282  -70.730797607   -23.0947   2   7   0.0079   0.0092   0.0135  -0.0014  -0.0012   0.0048   0.00    1.0
2025/01/19 14:43:42.000   43.024893312  -70.730797619   -23.0837   2   7   0.0078   0.0090   0.0134  -0.0016  -0.0016   0.0047   0.00    1.0
2025/01/19 14:43:43.000   43.024893291  -70.730797627   -23.0951   2   7   0.0079   0.0091   0.0135  -0.0008  -0.0015   0.0048   0.00    1.0
2025/01/19 14:43:44.000   43.024893244  -70.730797644   -23.0991   2   7   0.0079   0.0093   0.0135  -0.0012  -0.0008   0.0047   0.00    1.0
2025/01/19 14:43:45.000   43.024893317  -70.730797637   -23.0858   2   7   0.0079   0.0092   0.0135  -0.0016  -0.0010   0.0047   0.00    1.0
2025/01/19 14:43:46.000   43.024893317  -70.730797663   -23.0893   2   7   0.0079   0.0092   0.0135  -0.0013  -0.0012   0.0048   0.00    1.0
2025/01/19 14:43:47.000   43.024893287  -70.730797655   -23.0893   2   7   0.0078   0.0092   0.0134  -0.0012  -0.0013   0.0048   0.00    1.0
2025/01/19 14:43:48.000   43.024893296  -70.730797648   -23.0881   2   7   0.0079   0.0091   0.0134  -0.0013  -0.0016   0.0047   0.00    1.0
2025/01/19 14:43:49.000   43.024893285  -70.730797676   -23.0907   2   7   0.0079   0.0092   0.0134  -0.0013  -0.0016   0.0047   0.00    1.0
2025/01/19 14:43:50.000   43.024893321  -70.730797665   -23.0945   2   7   0.0079   0.0093   0.0135  -0.0011  -0.0007   0.0047   0.00    1.0
2025/01/19 14:43:51.000   43.024893350  -70.730797688   -23.0892   2   7   0.0080   0.0091   0.0134  -0.0016  -0.0013   0.0047   0.00    1.0
2025/01/19 14:43:52.000   43.024893309  -70.730797678   -23.0856   2   7   0.0078   0.0092   0.0135   0.0008  -0.0011   0.0048   0.00    1.0
2025/01/19 14:43:53.000   43.024893275  -70.730797689   -23.0873   2   7   0.0079   0.0092   0.0134  -0.0008  -0.0014   0.0046   0.00    1.0
2025/01/19 14:43:54.000   43.024893332  -70.730797704   -23.0908   2   7   0.0079   0.0093   0.0134  -0.0014  -0.0010   0.0046   0.00    1.0
2025/01/19 14:43:55.000   43.024893344  -70.730797686   -23.0863   2   7   0.0077   0.0091   0.0134  -0.0012  -0.0014   0.0047   0.00    1.0
2025/01/19 14:43:56.000   43.024893342  -70.730797743   -23.0846   2   7   0.0078   0.0092   0.0135  -0.0007  -0.0008   0.0047   0.00    1.0
2025/01/19 14:43:57.000   43.024893303  -70.730797721   -23.0872   2   7   0.0078   0.0091   0.0134  -0.0007  -0.0014   0.0048   0.00    1.0
2025/01/19 14:43:58.000   43.024893299  -70.730797717   -23.0925   2   7   0.0079   0.0092   0.0134  -0.0007  -0.0011   0.0047   0.00    1.0
2025/01/19 14:43:59.000   43.024893255  -70.730797749   -23.0985   2   7   0.0078   0.0091   0.0134  -0.0007  -0.0012   0.0047   0.00    1.0
2025/01/19 14:44:00.000   43.024893337  -70.730797745   -23.0870   2   7   0.0078   0.0091   0.0134  -0.0012  -0.0013   0.0046   0.00    1.0
2025/01/19 14:44:01.000   43.024893332  -70.730797737   -23.0932   2   7   0.0079   0.0093   0.0134  -0.0005  -0.0012   0.0047   0.00    1.0
2025/01/19 14:44:02.000   43.024893363  -70.730797771   -23.0815   2   7   0.0079   0.0092   0.0134   0.0003  -0.0011   0.0047   0.00    1.0
2025/01/19 14:44:03.000   43.024893325  -70.730797758   -23.0824   2   7   0.0078   0.0093   0.0134   0.0004  -0.0011   0.0047   0.00    1.0
2025/01/19 14:44:04.000   43.024893339  -70.730797766   -23.0797   2   7   0.0079   0.0091   0.0134  -0.0010  -0.0005   0.0047   0.00    1.0
2025/01/19 14:44:05.000   43.024893317  -70.730797784   -23.0884   2   7   0.0078   0.0091   0.0134  -0.0010  -0.0017   0.0047   0.00    1.0
2025/01/19 14:44:06.000   43.024893342  -70.730797778   -23.0973   2   7   0.0079   0.0094   0.0135   0.0005  -0.0010   0.0047   0.00    1.0
2025/01/19 14:44:07.000   43.024893370  -70.730797795   -23.0831   2   7   0.0079   0.0092   0.0134  -0.0009  -0.0010   0.0047   0.00    1.0
2025/01/19 14:44:08.000   43.024893330  -70.730797820   -23.0878   2   7   0.0079   0.0091   0.0134  -0.0013  -0.0016   0.0046   0.00    1.0
2025/01/19 14:44:09.000   43.024893355  -70.730797823   -23.0864   2   7   0.0078   0.0091   0.0134  -0.0011  -0.0015   0.0047   0.00    1.0
2025/01/19 14:44:10.000   43.024893362  -70.730797825   -23.0876   2   7   0.0079   0.0092   0.0134  -0.0011  -0.0011   0.0046   0.00    1.0
2025/01/19 14:44:11.000   43.024893401  -70.730797814   -23.0820   2   7   0.0079   0.0092   0.0134  -0.0013  -0.0012   0.0046   0.00    1.0
2025/01/19 14:44:12.000   43.024893370  -70.730797865   -23.0888   2   7   0.0079   0.0092   0.0134  -0.0013  -0.0012   0.0046   0.00    1.1
2025/01/19 14:44:13.000   43.024893393  -70.730797865   -23.0918   2   7   0.0079   0.0092   0.0134  -0.0008  -0.0007   0.0047   0.00    1.1
2025/01/19 14:44:14.000   43.024893375  -70.730797853   -23.0939   2   7   0.0078   0.0092   0.0134  -0.0012  -0.0012   0.0046   0.00    1.1
2025/01/19 14:44:15.000   43.024893423  -70.730797823   -23.0880   2   7   0.0079   0.0091   0.0134  -0.0013  -0.0017   0.0045   0.00    1.1
2025/01/19 14:44:16.000   43.024893395  -70.730797833   -23.0868   2   7   0.0078   0.0091   0.0134  -0.0011  -0.0012   0.0046   0.00    1.1
2025/01/19 14:44:17.000   43.024893426  -70.730797861   -23.0851   2   7   0.0078   0.0093   0.0134  -0.0014  -0.0007   0.0046   0.00    1.1
2025/01/19 14:44:18.000   43.024893378  -70.730797840   -23.0879   2   7   0.0079   0.0093   0.0134  -0.0008  -0.0011   0.0046   0.00    1.1
2025/01/19 14:44:19.000   43.024893389  -70.730797841   -23.0822   2   7   0.0078   0.0090   0.0134  -0.0014  -0.0018   0.0045   0.00    1.1
2025/01/19 14:44:20.000   43.024893422  -70.730797849   -23.0850   2   7   0.0077   0.0092   0.0134  -0.0004  -0.0012   0.0046   0.00    1.1
2025/01/19 14:44:21.000   43.024893415  -70.730797846   -23.0786   2   7   0.0078   0.0091   0.0133  -0.0013  -0.0015   0.0045   0.00    1.1
2025/01/19 14:44:22.000   43.024893383  -70.730797884   -23.0848   2   7   0.0078   0.0091   0.0134  -0.0007  -0.0011   0.0046   0.00    1.1
2025/01/19 14:44:23.000   43.024893412  -70.730797878   -23.0841   2   7   0.0078   0.0092   0.0134  -0.0014  -0.0009   0.0045   0.00    1.1
2025/01/19 14:44:24.000   43.024893420  -70.730797883   -23.0847   2   7   0.0078   0.0092   0.0134   0.0008  -0.0005   0.0046   0.00    1.1
2025/01/19 14:44:25.000   43.024893439  -70.730797877   -23.0795   2   7   0.0079   0.0092   0.0134   0.0008   0.0002   0.0046   0.00    1.1
2025/01/19 14:44:26.000   43.024893439  -70.730797898   -23.0827   2   7   0.0078   0.0091   0.0133  -0.0013  -0.0014   0.0045   0.00    1.1
2025/01/19 14:44:27.000   43.024893449  -70.730797907   -23.0812   2   7   0.0078   0.0093   0.0134   0.0005   0.0008   0.0047   0.00    1.0
2025/01/19 14:44:28.000   43.024893437  -70.730797932   -23.0804   2   7   0.0078   0.0093   0.0134  -0.0010  -0.0003   0.0046   0.00    1.0
2025/01/19 14:44:29.000   43.024893454  -70.730797947   -23.0797   2   7   0.0078   0.0091   0.0133  -0.0007  -0.0011   0.0046   0.00    1.0
2025/01/19 14:44:30.000   43.024893432  -70.730797907   -23.0873   2   7   0.0078   0.0091   0.0133  -0.0009  -0.0008   0.0046   0.00    1.0
2025/01/19 14:44:31.000   43.024893453  -70.730797897   -23.0806   2   7   0.0078   0.0090   0.0133  -0.0013  -0.0018   0.0045   0.00    1.0
2025/01/19 14:44:32.000   43.024893438  -70.730797910   -23.0848   2   7   0.0077   0.0090   0.0133  -0.0007  -0.0012   0.0045   0.00    1.0
2025/01/19 14:44:33.000   43.024893424  -70.730797950   -23.0886   2   7   0.0077   0.0091   0.0133  -0.0011  -0.0011   0.0045   0.00    1.0
2025/01/19 14:44:34.000   43.024893472  -70.730797956   -23.0818   2   7   0.0078   0.0091   0.0133   0.0004  -0.0014   0.0045   0.00    1.0
2025/01/19 14:44:35.000   43.024893480  -70.730797952   -23.0863   2   7   0.0077   0.0091   0.0133   0.0008   0.0008   0.0045   0.00    1.0
2025/01/19 14:44:36.000   43.024893416  -70.730797957   -23.0912   2   7   0.0078   0.0091   0.0133   0.0004  -0.0012   0.0045   0.00    1.0
2025/01/19 14:44:37.000   43.024893450  -70.730797971   -23.0795   2   7   0.0078   0.0092   0.0133   0.0008  -0.0009   0.0045   0.00    1.0
2025/01/19 14:44:38.000   43.024893494  -70.730797952   -23.0862   2   7   0.0078   0.0090   0.0132  -0.0013  -0.0014   0.0044   0.00    1.0
2025/01/19 14:44:39.000   43.024893479  -70.730797963   -23.0973   2   7   0.0078   0.0092   0.0133  -0.0019  -0.0009   0.0044   0.00    1.0
2025/01/19 14:44:40.000   43.024893478  -70.730797961   -23.0843   2   7   0.0078   0.0091   0.0133  -0.0010  -0.0014   0.0045   0.00    1.0
2025/01/19 14:44:41.000   43.024893495  -70.730797959   -23.0799   2   7   0.0077   0.0090   0.0133  -0.0006  -0.0013   0.0045   0.00    1.0
2025/01/19 14:44:42.000   43.024893471  -70.730797977   -23.0875   2   7   0.0078   0.0092   0.0133  -0.0016  -0.0012   0.0044   0.00    1.0
2025/01/19 14:44:43.000   43.024893496  -70.730797989   -23.0922   2   7   0.0078   0.0091   0.0133  -0.0013  -0.0010   0.0044   0.00    1.0
2025/01/19 14:44:44.000   43.024893463  -70.730797972   -23.0833   2   7   0.0078   0.0091   0.0133  -0.0007  -0.0012   0.0045   0.00    1.0
2025/01/19 14:44:45.000   43.024893518  -70.730797995   -23.0905   2   7   0.0077   0.0090   0.0132   0.0003  -0.0013   0.0045   0.00    1.0
2025/01/19 14:44:46.000   43.024893485  -70.730797957   -23.0851   2   7   0.0078   0.0091   0.0133  -0.0010  -0.0015   0.0044   0.00    1.0
2025/01/19 14:44:47.000   43.024893497  -70.730797961   -23.0846   2   7   0.0077   0.0090   0.0132   0.0008  -0.0013   0.0045   0.00    1.0
2025/01/19 14:44:48.000   43.024893494  -70.730798002   -23.0849   2   7   0.0078   0.0092   0.0133  -0.0010  -0.0009   0.0044   0.00    1.0
2025/01/19 14:44:49.000   43.024893463  -70.730797997   -23.0930   2   7   0.0078   0.0092   0.0133  -0.0004  -0.0009   0.0045   0.00    1.0
2025/01/19 14:44:50.000   43.024893509  -70.730797983   -23.0878   2   7   0.0078   0.0091   0.0133  -0.0013  -0.0011   0.0044   0.00    1.0
2025/01/19 14:44:51.000   43.024893445  -70.730797999   -23.0955   2   7   0.0078   0.0091   0.0132  -0.0012  -0.0013   0.0044   0.00    1.0
2025/01/19 14:44:52.000   43.024893455  -70.730798046   -23.1002   2   7   0.0077   0.0091   0.0133  -0.0008  -0.0009   0.0044   0.00    1.0
2025/01/19 14:44:53.000   43.024893483  -70.730798026   -23.0890   2   7   0.0078   0.0093   0.0132   0.0008  -0.0006   0.0044   0.00    1.0
2025/01/19 14:44:54.000   43.024893480  -70.730798017   -23.0898   2   7   0.0077   0.0092   0.0133  -0.0009  -0.0005   0.0044   0.00    1.0
2025/01/19 14:44:55.000   43.024893457  -70.730798042   -23.0951   2   7   0.0078   0.0090   0.0132  -0.0017  -0.0004   0.0044   0.00    1.0
2025/01/19 14:44:56.000   43.024893430  -70.730798031   -23.0995   2   7   0.0078   0.0092   0.0132  -0.0008  -0.0009   0.0044   0.00    1.0
2025/01/19 14:44:57.000   43.024893511  -70.730798039   -23.0819   2   7   0.0078   0.0091   0.0132  -0.0018  -0.0011   0.0043   0.00    1.0
2025/01/19 14:44:58.000   43.024893471  -70.730798023   -23.0962   2   7   0.0077   0.0090   0.0132  -0.0013  -0.0013   0.0044   0.00    1.0
2025/01/19 14:44:59.000   43.024893469  -70.730798040   -23.0911   2   7   0.0077   0.0090   0.0132   0.0003  -0.0009   0.0044   0.00    1.0
2025/01/19 14:45:00.000   43.024893487  -70.730798061   -23.0991   2   7   0.0077   0.0090   0.0132   0.0001  -0.0008   0.0044   0.00    1.0
2025/01/19 14:45:01.000   43.024893512  -70.730798048   -23.0913   2   7   0.0077   0.0090   0.0132   0.0003  -0.0007   0.0044   0.00    1.0
2025/01/19 14:45:02.000   43.024893430  -70.730798059   -23.0993   2   7   0.0078   0.0091   0.0132  -0.0011  -0.0008   0.0043   0.00    1.0
2025/01/19 14:45:03.000   43.024893454  -70.730798057   -23.0955   2   7   0.0077   0.0090   0.0132  -0.0012  -0.0015   0.0043   0.00    1.0
2025/01/19 14:45:04.000   43.024893441  -70.730798056   -23.1004   2   7   0.0077   0.0091   0.0132   0.0011  -0.0009   0.0044   0.00    1.0
2025/01/19 14:45:05.000   43.024893463  -70.730798054   -23.1001   2   7   0.0077   0.0091   0.0132  -0.0009  -0.0009   0.0043   0.00    1.0
2025/01/19 14:45:06.000   43.024893432  -70.730798072   -23.1026   2   7   0.0077   0.0090   0.0132   0.0008  -0.0016   0.0043   0.00    1.0
2025/01/19 14:45:07.000   43.024893423  -70.730798066   -23.1014   2   7   0.0076   0.0090   0.0132   0.0012  -0.0008   0.0044   0.00    1.0
2025/01/19 14:45:08.000   43.024893459  -70.730798063   -23.1004   2   7   0.0077   0.0092   0.0132   0.0011  -0.0009   0.0044   0.00    1.0
2025/01/19 14:45:09.000   43.024893504  -70.730798059   -23.0968   2   7   0.0077   0.0090   0.0132  -0.0014  -0.0008   0.0043   0.00    1.0
2025/01/19 14:45:10.000   43.024893439  -70.730798075   -23.1007   2   7   0.0077   0.0090   0.0132  -0.0010  -0.0007   0.0043   0.00    1.0
2025/01/19 14:45:11.000   43.024893390  -70.730798083   -23.1064   2   7   0.0077   0.0090   0.0132  -0.0010  -0.0006   0.0044   0.00    1.0
2025/01/19 14:45:12.000   43.024893469  -70.730798093   -23.0970   2   7   0.0076   0.0090   0.0132   0.0005  -0.0012   0.0043   0.00    1.0
2025/01/19 14:45:13.000   43.024893420  -70.730798088   -23.1023   2   7   0.0077   0.0091   0.0132   0.0010  -0.0011   0.0043   0.00    1.0
2025/01/19 14:45:14.000   43.024893433  -70.730798101   -23.1053   2   7   0.0077   0.0091   0.0132   0.0008  -0.0006   0.0044   0.00    1.0
2025/01/19 14:45:15.000   43.024893427  -70.730798080   -23.1031   2   7   0.0077   0.0090   0.0132  -0.0008  -0.0009   0.0043   0.00    1.0
2025/01/19 14:45:16.000   43.024893411  -70.730798089   -23.1119   2   7   0.0076   0.0090   0.0131  -0.0013  -0.0012   0.0042   0.00    1.0
2025/01/19 14:45:17.000   43.024893444  -70.730798111   -23.1094   2   7   0.0076   0.0091   0.0131   0.0011   0.0001   0.0044   0.00    1.0
2025/01/19 14:45:18.000   43.024893402  -70.730798118   -23.1102   2   7   0.0077   0.0091   0.0132  -0.0008   0.0006   0.0043   0.00    1.0
2025/01/19 14:45:19.000   43.024893409  -70.730798089   -23.1070   2   7   0.0077   0.0089   0.0132   0.0007  -0.0010   0.0042   0.00    1.0
2025/01/19 14:45:20.000   43.024893409  -70.730798086   -23.1068   2   7   0.0076   0.0090   0.0132  -0.0009  -0.0011   0.0042   0.00    1.0
2025/01/19 14:45:21.000   43.024893358  -70.730798082   -23.1080   2   7   0.0078   0.0091   0.0131  -0.0015   0.0004   0.0042   0.00    1.0
2025/01/19 14:45:22.000   43.024893382  -70.730798108   -23.1120   2   7   0.0077   0.0091   0.0132  -0.0007   0.0006   0.0042   0.00    1.0
2025/01/19 14:45:23.000   43.024893368  -70.730798103   -23.1048   2   7   0.0077   0.0091   0.0131  -0.0008  -0.0004   0.0042   0.00    1.0
2025/01/19 14:45:24.000   43.024893355  -70.730798088   -23.1155   2   7   0.0076   0.0090   0.0131   0.0010  -0.0006   0.0044   0.00    1.0
2025/01/19 14:45:25.000   43.024893379  -70.730798084   -23.1084   2   7   0.0076   0.0090   0.0131  -0.0001  -0.0002   0.0043   0.00    1.0
2025/01/19 14:45:26.000   43.024893363  -70.730798121   -23.1116   2   7   0.0077   0.0091   0.0131   0.0008   0.0011   0.0043   0.00    1.0
2025/01/19 14:45:27.000   43.024893340  -70.730798120   -23.1205   2   7   0.0077   0.0090   0.0131   0.0012  -0.0003   0.0043   0.00    1.0
2025/01/19 14:45:28.000   43.024893344  -70.730798082   -23.1138   2   7   0.0077   0.0091   0.0131  -0.0004  -0.0012   0.0042   0.00    1.0
2025/01/19 14:45:29.000   43.024893328  -70.730798111   -23.1172   2   7   0.0077   0.0091   0.0131  -0.0008   0.0004   0.0042   0.00    1.0
2025/01/19 14:45:30.000   43.024893330  -70.730798128   -23.1235   2   7   0.0076   0.0090   0.0132   0.0010   0.0012   0.0044   0.00    1.0
2025/01/19 14:45:31.000   43.024893319  -70.730798127   -23.1232   2   7   0.0077   0.0091   0.0131   0.0009   0.0005   0.0043   0.00    1.0
2025/01/19 14:45:32.000   43.024893341  -70.730798132   -23.1202   2   7   0.0077   0.0092   0.0132   0.0010   0.0012   0.0043   0.00    1.0
2025/01/19 14:45:33.000   43.024893322  -70.730798153   -23.1277   2   7   0.0077   0.0091   0.0132   0.0012   0.0006   0.0043   0.00    1.0
2025/01/19 14:45:34.000   43.024893331  -70.730798132   -23.1216   2   7   0.0077   0.0091   0.0131   0.0007  -0.0003   0.0042   0.00    1.0
2025/01/19 14:45:35.000   43.024893350  -70.730798116   -23.1124   2   7   0.0077   0.0091   0.0131   0.0009   0.0005   0.0042   0.00    1.0
2025/01/19 14:45:36.000   43.024893317  -70.730798119   -23.1196   2   7   0.0077   0.0091   0.0131   0.0008   0.0011   0.0042   0.00    1.0
2025/01/19 14:45:37.000   43.024893334  -70.730798154   -23.1316   2   7   0.0077   0.0091   0.0132   0.0011   0.0010   0.0043   0.00    1.0
2025/01/19 14:45:38.000   43.024893332  -70.730798120   -23.1205   2   7   0.0076   0.0090   0.0132   0.0008   0.0009   0.0043   0.00    1.0
2025/01/19 14:45:39.000   43.024893275  -70.730798107   -23.1348   2   7   0.0077   0.0092   0.0132   0.0006   0.0009   0.0042   0.00    1.0
2025/01/19 14:45:40.000   43.024893287  -70.730798122   -23.1308   2   7   0.0076   0.0090   0.0132   0.0008   0.0008   0.0043   0.00    1.0
2025/01/19 14:45:41.000   43.024893291  -70.730798188   -23.1324   2   7   0.0076   0.0091   0.0132   0.0013   0.0014   0.0044   0.00    1.0
2025/01/19 14:45:42.000   43.024893275  -70.730798109   -23.1253   2   7   0.0077   0.0091   0.0132  -0.0003   0.0009   0.0043   0.00    1.0
2025/01/19 14:45:43.000   43.024893300  -70.730798125   -23.1304   2   7   0.0077   0.0091   0.0132  -0.0002   0.0009   0.0043   0.00    1.0
2025/01/19 14:45:44.000   43.024893273  -70.730798168   -23.1309   2   7   0.0077   0.0091   0.0132   0.0006   0.0015   0.0044   0.00    1.0
2025/01/19 14:45:45.000   43.024893260  -70.730798171   -23.1400   2   7   0.0077   0.0091   0.0132   0.0009   0.0015   0.0044   0.00    1.0
2025/01/19 14:45:46.000   43.024893259  -70.730798147   -23.1336   2   7   0.0077   0.0091   0.0133   0.0011   0.0012   0.0045   0.00    1.0
2025/01/19 14:45:47.000   43.024893195  -70.730798157   -23.1482   2   7   0.0077   0.0091   0.0133   0.0009   0.0013   0.0045   0.00    1.0
2025/01/19 14:45:48.000   43.024893182  -70.730798171   -23.1372   2   7   0.0076   0.0091   0.0133   0.0013   0.0017   0.0045   0.00    1.0
2025/01/19 14:45:49.000   43.024893169  -70.730798178   -23.1477   2   7   0.0078   0.0091   0.0134   0.0013   0.0018   0.0046   0.00    1.0
2025/01/19 14:45:50.000   43.024893095  -70.730798178   -23.1583   2   7   0.0078   0.0092   0.0135   0.0013   0.0020   0.0047   0.00    1.0
2025/01/19 14:45:51.000   43.024893153  -70.730798232   -23.1562   2   7   0.0078   0.0091   0.0136   0.0016   0.0021   0.0049   0.00    1.0
2025/01/19 14:45:52.000   43.024893105  -70.730798222   -23.1618   2   7   0.0079   0.0092   0.0137   0.0015   0.0023   0.0050   0.00    1.0
2025/01/19 14:45:53.000   43.024893100  -70.730798257   -23.1732   2   7   0.0079   0.0091   0.0140   0.0018   0.0024   0.0053   0.00    1.0
2025/01/19 14:45:54.000   43.024893033  -70.730798273   -23.1745   2   7   0.0081   0.0092   0.0144   0.0022   0.0031   0.0059   0.00    1.0
2025/01/19 14:45:55.000   43.024892818  -70.730798421   -23.2275   2   7   0.0086   0.0092   0.0157   0.0029   0.0043   0.0072   0.00    1.0
2025/01/19 14:45:56.000   43.024892915  -70.730798342   -23.2020   2   6   0.0087   0.0093   0.0159   0.0030   0.0043   0.0074   0.00    1.1
2025/01/19 14:45:57.000   43.024892899  -70.730798406   -23.2063   2   6   0.0087   0.0093   0.0159   0.0032   0.0044   0.0074   0.00    1.1
2025/01/19 14:45:58.000   43.024892916  -70.730798354   -23.2010   2   6   0.0087   0.0093   0.0159   0.0031   0.0044   0.0074   0.00    1.1
2025/01/19 14:45:59.000   43.024892942  -70.730798347   -23.2036   2   6   0.0087   0.0093   0.0159   0.0030   0.0043   0.0074   0.00    1.1
2025/01/19 14:46:00.000   43.024892936  -70.730798380   -23.2046   2   6   0.0087   0.0092   0.0159   0.0032   0.0043   0.0074   0.00    1.1
2025/01/19 14:46:01.000   43.024893195  -70.730798183   -23.1301   2   7   0.0076   0.0091   0.0130   0.0011   0.0008   0.0041   0.00    1.0
2025/01/19 14:46:02.000   43.024893192  -70.730798164   -23.1283   2   7   0.0076   0.0091   0.0130  -0.0008   0.0010   0.0040   0.00    1.0
2025/01/19 14:46:03.000   43.024893161  -70.730798166   -23.1345   2   7   0.0076   0.0090   0.0130   0.0004  -0.0007   0.0039   0.00    1.0
2025/01/19 14:46:04.000   43.024893123  -70.730798193   -23.1388   2   7   0.0075   0.0090   0.0130  -0.0003   0.0006   0.0040   0.00    1.0
2025/01/19 14:46:05.000   43.024893132  -70.730798209   -23.1434   2   7   0.0076   0.0091   0.0129   0.0004   0.0004   0.0040   0.00    1.1
2025/01/19 14:46:06.000   43.024893106  -70.730798245   -23.1361   2   7   0.0076   0.0091   0.0130   0.0012   0.0006   0.0040   0.00    1.1
2025/01/19 14:46:07.000   43.024893098  -70.730798221   -23.1410   2   7   0.0075   0.0089   0.0129   0.0010  -0.0002   0.0040   0.00    1.1
2025/01/19 14:46:08.000   43.024893128  -70.730798204   -23.1380   2   7   0.0076   0.0090   0.0130   0.0006  -0.0006   0.0039   0.00    1.1
2025/01/19 14:46:09.000   43.024893111  -70.730798254   -23.1408   2   7   0.0075   0.0090   0.0129   0.0011   0.0008   0.0040   0.00    1.1
2025/01/19 14:46:10.000   43.024893099  -70.730798257   -23.1394   2   7   0.0075   0.0090   0.0129   0.0012  -0.0005   0.0040   0.00    1.1
2025/01/19 14:46:11.000   43.024893159  -70.730798220   -23.1369   2   7   0.0075   0.0090   0.0129  -0.0010   0.0003   0.0039   0.00    1.1
2025/01/19 14:46:12.000   43.024893132  -70.730798232   -23.1374   2   7   0.0075   0.0090   0.0129   0.0002  -0.0003   0.0039   0.00    1.1
2025/01/19 14:46:13.000   43.024893129  -70.730798260   -23.1429   2   7   0.0075   0.0090   0.0129   0.0009  -0.0007   0.0039   0.00    1.1
2025/01/19 14:46:14.000   43.024893156  -70.730798290   -23.1398   2   7   0.0074   0.0090   0.0129   0.0012   0.0007   0.0040   0.00    1.1
2025/01/19 14:46:15.000   43.024893165  -70.730798292   -23.1299   2   7   0.0075   0.0091   0.0130   0.0015   0.0012   0.0041   0.00    1.2
2025/01/19 14:46:16.000   43.024893081  -70.730798295   -23.1410   2   7   0.0075   0.0090   0.0129   0.0010   0.0004   0.0039   0.00    1.2
2025/01/19 14:46:17.000   43.024893156  -70.730798275   -23.1337   2   7   0.0075   0.0091   0.0129  -0.0003  -0.0007   0.0039   0.00    1.2
2025/01/19 14:46:18.000   43.024893087  -70.730798336   -23.1417   2   7   0.0074   0.0090   0.0129   0.0014  -0.0006   0.0040   0.00    1.2
2025/01/19 14:46:19.000   43.024893084  -70.730798226   -23.1406   2   7   0.0075   0.0089   0.0130  -0.0011  -0.0007   0.0039   0.00    1.2
2025/01/19 14:46:20.000   43.024893155  -70.730798289   -23.1330   2   7   0.0075   0.0090   0.0130  -0.0004   0.0008   0.0039   0.00    1.2
2025/01/19 14:46:21.000   43.024893043  -70.730798255   -23.1356   2   7   0.0075   0.0089   0.0129   0.0001   0.0006   0.0040   0.00    1.2
2025/01/19 14:46:22.000   43.024893081  -70.730798254   -23.1300   2   7   0.0075   0.0090   0.0129   0.0001  -0.0005   0.0039   0.00    1.2
2025/01/19 14:46:23.000   43.024893027  -70.730798335   -23.1346   2   7   0.0075   0.0091   0.0129   0.0015   0.0007   0.0039   0.00    1.2
2025/01/19 14:46:24.000   43.024893049  -70.730798230   -23.1391   2   7   0.0075   0.0090   0.0129  -0.0010   0.0005   0.0039   0.00    1.2
2025/01/19 14:46:25.000   43.024893071  -70.730798293   -23.1271   2   7   0.0075   0.0090   0.0129   0.0009   0.0002   0.0039   0.00    1.2
2025/01/19 14:46:26.000   43.024893074  -70.730798329   -23.1359   2   7   0.0075   0.0090   0.0130   0.0010   0.0010   0.0039   0.00    1.2
2025/01/19 14:46:27.000   43.024893052  -70.730798322   -23.1426   2   7   0.0075   0.0090   0.0129   0.0008   0.0005   0.0039   0.00    1.2
2025/01/19 14:46:28.000   43.024893060  -70.730798289   -23.1305   2   7   0.0076   0.0091   0.0129  -0.0004   0.0008   0.0038   0.00    1.2
2025/01/19 14:46:29.000   43.024893015  -70.730798245   -23.1290   2   7   0.0075   0.0089   0.0129  -0.0008  -0.0008   0.0037   0.00    1.2
2025/01/19 14:46:30.000   43.024893073  -70.730798284   -23.1280   2   7   0.0075   0.0091   0.0130   0.0009   0.0013   0.0039   0.00    1.2
2025/01/19 14:46:31.000   43.024893061  -70.730798372   -23.1367   2   7   0.0075   0.0090   0.0129   0.0015   0.0012   0.0040   0.00    1.2
2025/01/19 14:46:32.000   43.024893035  -70.730798287   -23.1310   2   7   0.0075   0.0090   0.0129   0.0011  -0.0007   0.0039   0.00    1.2
2025/01/19 14:46:33.000   43.024893027  -70.730798352   -23.1371   2   7   0.0075   0.0090   0.0129   0.0012   0.0009   0.0040   0.00    1.1
2025/01/19 14:46:34.000   43.024893043  -70.730798330   -23.1371   2   7   0.0075   0.0090   0.0129   0.0009   0.0004   0.0039   0.00    1.1
2025/01/19 14:46:35.000   43.024893031  -70.730798336   -23.1397   2   7   0.0074   0.0089   0.0129   0.0011  -0.0006   0.0038   0.00    1.1
2025/01/19 14:46:36.000   43.024893004  -70.730798337   -23.1432   2   7   0.0074   0.0089   0.0129   0.0006  -0.0011   0.0039   0.00    1.1
2025/01/19 14:46:37.000   43.024893009  -70.730798298   -23.1340   2   7   0.0075   0.0090   0.0129   0.0005  -0.0002   0.0039   0.00    1.1
2025/01/19 14:46:38.000   43.024893060  -70.730798333   -23.1336   2   7   0.0075   0.0089   0.0129   0.0003   0.0003   0.0039   0.00    1.1
2025/01/19 14:46:39.000   43.024893024  -70.730798335   -23.1361   2   7   0.0075   0.0090   0.0129   0.0007   0.0008   0.0039   0.00    1.1
2025/01/19 14:46:40.000   43.024893015  -70.730798312   -23.1388   2   7   0.0075   0.0091   0.0129   0.0006   0.0013   0.0039   0.00    1.1
2025/01/19 14:46:41.000   43.024893048  -70.730798330   -23.1320   2   7   0.0075   0.0089   0.0129   0.0010  -0.0008   0.0038   0.00    1.1
2025/01/19 14:46:42.000   43.024893059  -70.730798339   -23.1272   2   7   0.0074   0.0090   0.0129   0.0012  -0.0008   0.0038   0.00    1.1
2025/01/19 14:46:43.000   43.024893040  -70.730798311   -23.1305   2   7   0.0075   0.0090   0.0129   0.0007  -0.0007   0.0038   0.00    1.1
2025/01/19 14:46:44.000   43.024893048  -70.730798347   -23.1304   2   7   0.0074   0.0090   0.0129   0.0013   0.0010   0.0039   0.00    1.1
2025/01/19 14:46:45.000   43.024892966  -70.730798326   -23.1409   2   7   0.0074   0.0090   0.0129   0.0009   0.0007   0.0039   0.00    1.1
2025/01/19 14:46:46.000   43.024893057  -70.730798389   -23.1349   2   7   0.0073   0.0090   0.0130   0.0015   0.0002   0.0039   0.00    1.1
2025/01/19 14:46:47.000   43.024893016  -70.730798301   -23.1283   2   7   0.0074   0.0089   0.0129   0.0010   0.0008   0.0039   0.00    1.1
2025/01/19 14:46:48.000   43.024892986  -70.730798372   -23.1380   2   7   0.0075   0.0090   0.0129   0.0013   0.0007   0.0039   0.00    1.1
2025/01/19 14:46:49.000   43.024892996  -70.730798356   -23.1406   2   7   0.0075   0.0091   0.0129   0.0011   0.0008   0.0039   0.00    1.1
2025/01/19 14:46:50.000   43.024892961  -70.730798366   -23.1423   2   7   0.0074   0.0089   0.0129   0.0010  -0.0007   0.0039   0.00    1.1
2025/01/19 14:46:51.000   43.024893026  -70.730798396   -23.1382   2   7   0.0074   0.0089   0.0129   0.0013   0.0007   0.0038   0.00    1.0
2025/01/19 14:46:52.000   43.024892984  -70.730798407   -23.1350   2   7   0.0075   0.0091   0.0130   0.0015   0.0011   0.0039   0.00    1.0
2025/01/19 14:46:53.000   43.024892940  -70.730798316   -23.1382   2   7   0.0074   0.0090   0.0130  -0.0005   0.0012   0.0038   0.00    1.0
2025/01/19 14:46:54.000   43.024892969  -70.730798382   -23.1392   2   7   0.0074   0.0090   0.0129   0.0012   0.0010   0.0039   0.00    1.0
2025/01/19 14:46:55.000   43.024892992  -70.730798387   -23.1340   2   7   0.0074   0.0090   0.0129   0.0014   0.0011   0.0040   0.00    1.0
2025/01/19 14:46:56.000   43.024892963  -70.730798364   -23.1369   2   7   0.0074   0.0090   0.0130   0.0014   0.0010   0.0039   0.00    1.0
2025/01/19 14:46:57.000   43.024892986  -70.730798452   -23.1412   2   7   0.0074   0.0091   0.0130   0.0021   0.0015   0.0041   0.00    1.0
2025/01/19 14:46:58.000   43.024892983  -70.730798390   -23.1389   2   7   0.0074   0.0089   0.0130   0.0011   0.0008   0.0039   0.00    1.0
2025/01/19 14:46:59.000   43.024892939  -70.730798367   -23.1406   2   7   0.0075   0.0091   0.0130   0.0011   0.0011   0.0039   0.00    1.0
2025/01/19 14:47:00.000   43.024892928  -70.730798402   -23.1423   2   7   0.0075   0.0091   0.0130   0.0016   0.0012   0.0039   0.00    1.0
2025/01/19 14:47:01.000   43.024892991  -70.730798379   -23.1387   2   7   0.0074   0.0089   0.0130   0.0014   0.0006   0.0039   0.00    1.0
2025/01/19 14:47:02.000   43.024892968  -70.730798426   -23.1408   2   7   0.0074   0.0090   0.0130   0.0016   0.0014   0.0040   0.00    1.0
2025/01/19 14:47:03.000   43.024892939  -70.730798439   -23.1407   2   7   0.0074   0.0089   0.0130   0.0015   0.0011   0.0040   0.00    1.0
2025/01/19 14:47:04.000   43.024892973  -70.730798418   -23.1362   2   7   0.0074   0.0091   0.0131   0.0017   0.0015   0.0040   0.00    1.0
2025/01/19 14:47:05.000   43.024892932  -70.730798347   -23.1445   2   7   0.0074   0.0090   0.0130   0.0003   0.0012   0.0040   0.00    1.0
2025/01/19 14:47:06.000   43.024892892  -70.730798444   -23.1439   2   7   0.0075   0.0091   0.0131   0.0015   0.0018   0.0041   0.00    1.0
2025/01/19 14:47:07.000   43.024892951  -70.730798393   -23.1438   2   7   0.0074   0.0090   0.0131   0.0010   0.0015   0.0040   0.00    1.0
2025/01/19 14:47:08.000   43.024892895  -70.730798458   -23.1468   2   7   0.0074   0.0090   0.0131   0.0017   0.0009   0.0040   0.00    1.0
2025/01/19 14:47:09.000   43.024892963  -70.730798432   -23.1418   2   7   0.0074   0.0090   0.0131   0.0016   0.0013   0.0041   0.00    1.0
2025/01/19 14:47:10.000   43.024892917  -70.730798424   -23.1437   2   7   0.0075   0.0090   0.0131   0.0013   0.0014   0.0041   0.00    1.0
2025/01/19 14:47:11.000   43.024892885  -70.730798513   -23.1532   2   7   0.0074   0.0090   0.0132   0.0020   0.0017   0.0043   0.00    1.1
2025/01/19 14:47:12.000   43.024892822  -70.730798499   -23.1545   2   7   0.0075   0.0090   0.0132   0.0019   0.0015   0.0043   0.00    1.1
2025/01/19 14:47:13.000   43.024892806  -70.730798463   -23.1674   2   7   0.0075   0.0090   0.0133   0.0016   0.0021   0.0044   0.00    1.1
2025/01/19 14:47:14.000   43.024892906  -70.730798525   -23.1511   2   7   0.0075   0.0090   0.0133   0.0019   0.0019   0.0045   0.00    1.1
2025/01/19 14:47:15.000   43.024892817  -70.730798547   -23.1660   2   7   0.0076   0.0090   0.0135   0.0020   0.0021   0.0046   0.00    1.1
2025/01/19 14:47:16.000   43.024892740  -70.730798456   -23.1661   2   7   0.0077   0.0091   0.0136   0.0019   0.0024   0.0047   0.00    1.1
2025/01/19 14:47:17.000   43.024892719  -70.730798581   -23.1867   2   7   0.0077   0.0090   0.0139   0.0021   0.0026   0.0051   0.00    1.1
2025/01/19 14:47:18.000   43.024892677  -70.730798608   -23.2051   2   7   0.0078   0.0090   0.0143   0.0025   0.0032   0.0057   0.00    1.1
2025/01/19 14:47:19.000   43.024892433  -70.730798751   -23.2575   2   7   0.0083   0.0092   0.0156   0.0031   0.0043   0.0069   0.00    1.1
2025/01/19 14:47:20.000   43.024892596  -70.730798686   -23.2306   2   6   0.0085   0.0093   0.0158   0.0032   0.0045   0.0072   0.00    1.1
2025/01/19 14:47:21.000   43.024892530  -70.730798722   -23.2359   2   6   0.0084   0.0091   0.0158   0.0032   0.0045   0.0072   0.00    1.1
2025/01/19 14:47:22.000   43.024892542  -70.730798711   -23.2352   2   6   0.0084   0.0092   0.0158   0.0031   0.0046   0.0072   0.00    1.1
2025/01/19 14:47:23.000   43.024892512  -70.730798743   -23.2372   2   6   0.0084   0.0092   0.0158   0.0034   0.0043   0.0072   0.00    1.1
2025/01/19 14:47:24.000   43.024892565  -70.730798759   -23.2305   2   6   0.0084   0.0092   0.0158   0.0034   0.0043   0.0072   0.00    1.1
2025/01/19 14:47:25.000   43.024892551  -70.730798765   -23.2342   2   6   0.0084   0.0092   0.0158   0.0034   0.0044   0.0072   0.00    1.0
2025/01/19 14:47:26.000   43.024892866  -70.730798480   -23.1587   2   7   0.0076   0.0090   0.0136   0.0017   0.0021   0.0048   0.00    1.0
2025/01/19 14:47:27.000   43.024892543  -70.730798766   -23.2351   2   6   0.0084   0.0092   0.0158   0.0034   0.0044   0.0072   0.00    1.0
2025/01/19 14:47:28.000   43.024892568  -70.730798790   -23.2325   2   6   0.0084   0.0092   0.0158   0.0033   0.0046   0.0072   0.00    1.0
2025/01/19 14:47:29.000   43.024892551  -70.730798757   -23.2338   2   6   0.0084   0.0092   0.0158   0.0033   0.0045   0.0072   0.00    1.0
2025/01/19 14:47:30.000   43.024892511  -70.730798706   -23.2375   2   6   0.0084   0.0092   0.0158   0.0031   0.0044   0.0072   0.00    1.0
2025/01/19 14:47:31.000   43.024892768  -70.730798523   -23.1714   2   7   0.0076   0.0090   0.0137   0.0020   0.0024   0.0048   0.00    1.0
2025/01/19 14:47:32.000   43.024892750  -70.730798604   -23.1780   2   7   0.0077   0.0091   0.0139   0.0024   0.0028   0.0051   0.00    1.0
2025/01/19 14:47:33.000   43.024892651  -70.730798688   -23.2001   2   7   0.0078   0.0091   0.0144   0.0028   0.0032   0.0057   0.00    1.0
2025/01/19 14:47:34.000   43.024892531  -70.730798765   -23.2393   2   6   0.0084   0.0092   0.0158   0.0032   0.0045   0.0072   0.00    1.0
2025/01/19 14:47:35.000   43.024892484  -70.730798784   -23.2414   2   6   0.0084   0.0092   0.0158   0.0034   0.0044   0.0072   0.00    1.0
2025/01/19 14:47:36.000   43.024892477  -70.730798762   -23.2366   2   6   0.0084   0.0093   0.0158   0.0033   0.0046   0.0071   0.00    1.0
2025/01/19 14:47:37.000   43.024892446  -70.730798813   -23.2500   2   6   0.0084   0.0092   0.0158   0.0033   0.0044   0.0072   0.00    1.0
2025/01/19 14:47:38.000   43.024892500  -70.730798787   -23.2429   2   7   0.0084   0.0091   0.0158   0.0033   0.0045   0.0072   0.00    1.0
2025/01/19 14:47:39.000   43.024892750  -70.730798567   -23.1681   2   7   0.0074   0.0090   0.0132   0.0020   0.0016   0.0042   0.00    1.0
2025/01/19 14:47:40.000   43.024892758  -70.730798543   -23.1646   2   7   0.0074   0.0090   0.0133   0.0020   0.0018   0.0043   0.00    1.0
2025/01/19 14:47:41.000   43.024892731  -70.730798548   -23.1748   2   7   0.0074   0.0090   0.0133   0.0017   0.0017   0.0042   0.00    1.0
2025/01/19 14:47:42.000   43.024892480  -70.730798825   -23.2495   2   6   0.0083   0.0092   0.0158   0.0033   0.0046   0.0072   0.00    1.0
2025/01/19 14:47:43.000   43.024892469  -70.730798787   -23.2527   2   6   0.0083   0.0092   0.0158   0.0033   0.0044   0.0072   0.00    1.0
2025/01/19 14:47:44.000   43.024892410  -70.730798852   -23.2569   2   6   0.0084   0.0092   0.0158   0.0033   0.0044   0.0072   0.00    1.0
2025/01/19 14:47:45.000   43.024892731  -70.730798555   -23.1602   2   7   0.0074   0.0089   0.0133   0.0017   0.0017   0.0044   0.00    1.0
2025/01/19 14:47:46.000   43.024892733  -70.730798596   -23.1639   2   7   0.0074   0.0090   0.0135   0.0019   0.0022   0.0046   0.00    1.0
2025/01/19 14:47:47.000   43.024892611  -70.730798643   -23.1845   2   7   0.0075   0.0091   0.0136   0.0020   0.0025   0.0048   0.00    1.0
2025/01/19 14:47:48.000   43.024892493  -70.730798642   -23.1997   2   7   0.0076   0.0090   0.0139   0.0023   0.0027   0.0050   0.00    1.0
2025/01/19 14:47:49.000   43.024892514  -70.730798704   -23.2142   2   7   0.0077   0.0091   0.0144   0.0024   0.0033   0.0056   0.00    1.0
2025/01/19 14:47:50.000   43.024892356  -70.730798864   -23.2600   2   7   0.0083   0.0092   0.0158   0.0033   0.0046   0.0071   0.00    1.0
2025/01/19 14:47:51.000   43.024892385  -70.730798855   -23.2452   2   6   0.0084   0.0092   0.0158   0.0034   0.0045   0.0071   0.00    1.1
2025/01/19 14:47:52.000   43.024892409  -70.730798899   -23.2504   2   6   0.0083   0.0092   0.0158   0.0034   0.0045   0.0072   0.00    1.1
2025/01/19 14:47:53.000   43.024892382  -70.730798834   -23.2553   2   6   0.0083   0.0092   0.0158   0.0032   0.0045   0.0071   0.00    1.1
2025/01/19 14:47:54.000   43.024892368  -70.730798892   -23.2520   2   6   0.0084   0.0092   0.0158   0.0034   0.0045   0.0071   0.00    1.1
2025/01/19 14:47:55.000   43.024893016  -70.730798710   -23.1338   2   7   0.0064   0.0092   0.0130   0.0023   0.0036   0.0019   0.00    1.0
2025/01/19 14:47:56.000   43.024892937  -70.730798696   -23.1395   2   7   0.0064   0.0092   0.0130   0.0024   0.0036   0.0017   0.00    1.0
2025/01/19 14:47:57.000   43.024892929  -70.730798720   -23.1442   2   7   0.0063   0.0091   0.0129   0.0026   0.0034   0.0017   0.00    1.0
2025/01/19 14:47:58.000   43.024892869  -70.730798716   -23.1499   2   7   0.0064   0.0091   0.0130   0.0025   0.0034   0.0017   0.00    1.0
2025/01/19 14:47:59.000   43.024892884  -70.730798684   -23.1452   2   7   0.0063   0.0092   0.0130   0.0025   0.0036   0.0017   0.00    1.0
2025/01/19 14:48:00.000   43.024892845  -70.730798709   -23.1460   2   7   0.0064   0.0091   0.0130   0.0026   0.0036   0.0018   0.00    1.0
2025/01/19 14:48:01.000   43.024892825  -70.730798720   -23.1429   2   7   0.0065   0.0092   0.0129   0.0026   0.0034   0.0016   0.00    1.0
2025/01/19 14:48:02.000   43.024892814  -70.730798735   -23.1397   2   7   0.0064   0.0091   0.0130   0.0028   0.0035   0.0017   0.00    1.0
2025/01/19 14:48:03.000   43.024892797  -70.730798688   -23.1430   2   7   0.0064   0.0092   0.0129   0.0026   0.0036   0.0015   0.00    1.0
2025/01/19 14:48:04.000   43.024892794  -70.730798685   -23.1448   2   7   0.0064   0.0092   0.0130   0.0026   0.0035   0.0016   0.00    1.0
2025/01/19 14:48:05.000   43.024892787  -70.730798750   -23.1493   2   7   0.0064   0.0092   0.0130   0.0027   0.0035   0.0016   0.00    1.0
2025/01/19 14:48:06.000   43.024892831  -70.730798639   -23.1405   2   7   0.0063   0.0091   0.0130   0.0024   0.0036   0.0016   0.00    1.0
2025/01/19 14:48:07.000   43.024892785  -70.730798659   -23.1431   2   7   0.0063   0.0092   0.0130   0.0026   0.0036   0.0016   0.00    1.0
2025/01/19 14:48:08.000   43.024892806  -70.730798660   -23.1476   2   7   0.0064   0.0093   0.0130   0.0026   0.0036   0.0018   0.00    1.0
2025/01/19 14:48:09.000   43.024892811  -70.730798660   -23.1466   2   7   0.0062   0.0091   0.0130   0.0023   0.0035   0.0017   0.00    1.0
2025/01/19 14:48:10.000   43.024892778  -70.730798629   -23.1450   2   7   0.0063   0.0091   0.0130   0.0023   0.0036   0.0015   0.00    1.0
2025/01/19 14:48:11.000   43.024892764  -70.730798643   -23.1386   2   7   0.0064   0.0092   0.0129   0.0026   0.0036   0.0015   0.00    1.0
2025/01/19 14:48:12.000   43.024892809  -70.730798649   -23.1438   2   7   0.0063   0.0091   0.0130   0.0025   0.0036   0.0017   0.00    1.0
2025/01/19 14:48:13.000   43.024892842  -70.730798682   -23.1391   2   7   0.0063   0.0090   0.0129   0.0026   0.0035   0.0017   0.00    1.0
2025/01/19 14:48:14.000   43.024892783  -70.730798712   -23.1432   2   7   0.0063   0.0091   0.0129   0.0028   0.0034   0.0016   0.00    1.0
2025/01/19 14:48:15.000   43.024892816  -70.730798752   -23.1394   2   7   0.0063   0.0092   0.0129   0.0028   0.0035   0.0015   0.00    1.0
2025/01/19 14:48:16.001   43.024892746  -70.730798666   -23.1412   2   7   0.0063   0.0091   0.0129   0.0027   0.0036   0.0016   0.00    1.0
2025/01/19 14:48:17.000   43.024892756  -70.730798743   -23.1438   2   7   0.0063   0.0090   0.0129   0.0027   0.0035   0.0017   0.00    1.0
2025/01/19 14:48:18.000   43.024892755  -70.730798688   -23.1454   2   7   0.0064   0.0092   0.0129   0.0027   0.0035   0.0016   0.00    1.0
2025/01/19 14:48:19.000   43.024892751  -70.730798614   -23.1459   2   7   0.0064   0.0092   0.0130   0.0026   0.0035   0.0016   0.00    1.0
2025/01/19 14:48:20.000   43.024892730  -70.730798611   -23.1415   2   7   0.0064   0.0092   0.0129   0.0025   0.0035   0.0017   0.00    1.0
2025/01/19 14:48:21.000   43.024892735  -70.730798652   -23.1411   2   7   0.0063   0.0091   0.0129   0.0026   0.0035   0.0015   0.00    1.0
2025/01/19 14:48:22.000   43.024892846  -70.730798617   -23.1413   2   7   0.0062   0.0092   0.0130   0.0024   0.0036   0.0016   0.00    1.0
2025/01/19 14:48:23.000   43.024892754  -70.730798618   -23.1426   2   7   0.0063   0.0091   0.0129   0.0025   0.0036   0.0015   0.00    1.0
2025/01/19 14:48:24.000   43.024892737  -70.730798577   -23.1410   2   7   0.0063   0.0092   0.0129   0.0024   0.0037   0.0016   0.00    1.0
2025/01/19 14:48:25.000   43.024892734  -70.730798700   -23.1422   2   7   0.0063   0.0092   0.0130   0.0028   0.0034   0.0016   0.00    1.0
2025/01/19 14:48:26.000   43.024892660  -70.730798586   -23.1423   2   7   0.0064   0.0092   0.0130   0.0026   0.0035   0.0014   0.00    1.0
2025/01/19 14:48:27.000   43.024892767  -70.730798635   -23.1384   2   7   0.0062   0.0091   0.0130   0.0025   0.0036   0.0016   0.00    1.0
2025/01/19 14:48:28.000   43.024892785  -70.730798625   -23.1311   2   7   0.0062   0.0091   0.0130   0.0025   0.0035   0.0015   0.00    1.0
2025/01/19 14:48:29.000   43.024892732  -70.730798597   -23.1341   2   7   0.0063   0.0092   0.0130   0.0026   0.0036   0.0015   0.00    1.0
2025/01/19 14:48:30.000   43.024892761  -70.730798636   -23.1311   2   7   0.0063   0.0092   0.0129   0.0026   0.0036   0.0016   0.00    1.0
2025/01/19 14:48:31.000   43.024892736  -70.730798707   -23.1342   2   7   0.0063   0.0091   0.0129   0.0027   0.0035   0.0016   0.00    1.0
2025/01/19 14:48:32.000   43.024892698  -70.730798608   -23.1353   2   7   0.0063   0.0091   0.0129   0.0025   0.0036   0.0016   0.00    1.0
2025/01/19 14:48:33.000   43.024892731  -70.730798606   -23.1319   2   7   0.0063   0.0092   0.0129   0.0027   0.0035   0.0014   0.00    1.0
2025/01/19 14:48:34.000   43.024892709  -70.730798579   -23.1370   2   7   0.0063   0.0092   0.0129   0.0026   0.0036   0.0015   0.00    1.0
2025/01/19 14:48:35.000   43.024892747  -70.730798638   -23.1354   2   7   0.0062   0.0091   0.0129   0.0025   0.0035   0.0014   0.00    1.0
